Organisation_Code,Legal_Name,Is_RTO,Status,Registration_Manager,Legal_Authority,Head_Office_Physical_Address,Head_Office_Location_State,Latitude,Longitude,RTO_Type,NSW_Delivery_Approved,VIC_Delivery_Approved,QLD_Delivery_Approved,SA_Delivery_Approved,WA_Delivery_Approved,TAS_Delivery_Approved,NT_Delivery_Approved,ACT_Delivery_Approved
1,Office of the Student Identifiers Registrar,TRUE,Current,TVET Australia,Office of the Student Identifiers Registrar,"50 Marcus Clarke Street, Canberra, ACT, 2600",Australian Capital Territory,-35.27742,149.12671,Other – Not Elsewhere Classified,FALSE,FALSE,FALSE,FALSE,FALSE,FALSE,FALSE,FALSE
22,Adelaide Training and Employment Centre Inc,TRUE,Current,Australian Skills Quality Authority,National Vocational Education and Training Regulator Act 2011,"275 Grand Junction Road, Ottoway, SA, 5013",South Australia,-34.8504,138.54116,Education/training Business Or Centre: Privately Operated Registered Training Organisation,TRUE,TRUE,TRUE,TRUE,TRUE,TRUE,TRUE,TRUE
49,Australian Institute of Management Education and Training Pty Ltd,TRUE,Current,Australian Skills Quality Authority,National Vocational Education and Training Regulator Act 2011,"Ground Floor 7-15 Macquarie Pl, SYDNEY, NSW, 2000",New South Wales,-33.86274,151.20983,Education/training Business Or Centre: Privately Operated Registered Training Organisation,TRUE,TRUE,TRUE,TRUE,TRUE,TRUE,TRUE,TRUE
58,Australian Institute of Management-Western Australian Human Resource Development Centre Limited,TRUE,Current,Australian Skills Quality Authority,National Vocational Education and Training Regulator Act 2011,"76 Birkdale Street, Floreat, WA, 6014",Western Australia,-31.94718,115.80264,Education/training Business Or Centre: Privately Operated Registered Training Organisation,TRUE,TRUE,TRUE,TRUE,TRUE,TRUE,TRUE,TRUE
64,The University of Notre Dame Australia,TRUE,Current,Australian Skills Quality Authority,National Vocational Education and Training Regulator Act 2011,"88 Guy Street, Broome, WA, 6725",Western Australia,-17.96128,122.22402,University - Non-Government Catholic,TRUE,TRUE,TRUE,TRUE,TRUE,TRUE,TRUE,TRUE
80,Heather Langton Pty Ltd,TRUE,Current,Australian Skills Quality Authority,National Vocational Education and Training Regulator Act 2011,"Ground Floor 145 South Tce, ADELAIDE, SA, 5000",South Australia,-34.93533,138.59916,Education/training Business Or Centre: Privately Operated Registered Training Organisation,TRUE,TRUE,TRUE,TRUE,TRUE,TRUE,TRUE,TRUE
95,Cairns Business College Pty Ltd,TRUE,Current,Australian Skills Quality Authority,National Vocational Education and Training Regulator Act 2011,"Level 38 71 Eagle St, BRISBANE CITY, QLD, 4000",Queensland,-27.4684,153.03021,Education/training Business Or Centre: Privately Operated Registered Training Organisation,TRUE,TRUE,TRUE,TRUE,TRUE,TRUE,TRUE,TRUE
101,Canberra Institute of Technology,TRUE,Current,Australian Skills Quality Authority,National Vocational Education and Training Regulator Act 2011,"36 Bradley Street, PHILLIP, ACT, 2606",Australian Capital Territory,-35.346498,149.087247,"Technical And Further Education Institute, Skills Institute Or Polytechnic",TRUE,TRUE,TRUE,TRUE,TRUE,TRUE,TRUE,TRUE
104,Career Employment Australia Ltd,TRUE,Current,Australian Skills Quality Authority,National Vocational Education and Training Regulator Act 2011,"29 Cambridge Street, Coorparoo, QLD, 4151",Queensland,-27.48831,153.05406,Community Based Adult Education Provider,TRUE,TRUE,TRUE,TRUE,TRUE,TRUE,TRUE,TRUE
109,Australian College of the Arts Pty Ltd,TRUE,Current,Australian Skills Quality Authority,National Vocational Education and Training Regulator Act 2011,"208-224 Wellington St, COLLINGWOOD, VIC, 3066",Victoria,-37.80232,144.98701,Education/training Business Or Centre: Privately Operated Registered Training Organisation,TRUE,TRUE,TRUE,TRUE,TRUE,TRUE,TRUE,TRUE
111,Photography Holdings Pty Ltd,TRUE,Current,Australian Skills Quality Authority,National Vocational Education and Training Regulator Act 2011,"37 Thistlethwaite St, SOUTH MELBOURNE, VIC, 3205",Victoria,-37.83114,144.9526,Education/training Business Or Centre: Privately Operated Registered Training Organisation,TRUE,TRUE,FALSE,FALSE,FALSE,FALSE,FALSE,FALSE
115,Impact Community Services Limited,TRUE,Current,Australian Skills Quality Authority,National Vocational Education and Training Regulator Act 2011,"106-108 Bargara Road, Bundaberg East, QLD, 4670",Queensland,-24.85341,152.38015,Community Based Adult Education Provider,FALSE,FALSE,TRUE,FALSE,FALSE,FALSE,FALSE,FALSE
137,ASHT Pty Ltd,TRUE,Current,Australian Skills Quality Authority,National Vocational Education and Training Regulator Act 2011,"Level 2/ 97  Pirie Street, Adelaide, SA, 5000",South Australia,-34.9258,138.60342,Education/training Business Or Centre: Privately Operated Registered Training Organisation,TRUE,TRUE,TRUE,TRUE,TRUE,TRUE,TRUE,TRUE
142,Chabad Institutions of Victoria Limited,TRUE,Current,Australian Skills Quality Authority,National Vocational Education and Training Regulator Act 2011,"88 Hotham Street, East St Kilda, VIC, 3183",Victoria,-37.86792,144.99994,Education/training Business Or Centre: Privately Operated Registered Training Organisation,FALSE,TRUE,FALSE,FALSE,FALSE,FALSE,FALSE,FALSE
167,Institute for Aboriginal Development (Aboriginal Corporation),TRUE,Current,Australian Skills Quality Authority,National Vocational Education and Training Regulator Act 2011,"8 South Tce, THE GAP, NT, 0870",Northern Territory,-23.712177,133.877166,Education/training Business Or Centre: Privately Operated Registered Training Organisation,FALSE,FALSE,FALSE,FALSE,FALSE,FALSE,TRUE,FALSE
168,Nungalinya College Indigenous Corporation,TRUE,Current,Australian Skills Quality Authority,National Vocational Education and Training Regulator Act 2011,"Dripstone Road, Casuarina, NT, 0810",Northern Territory,-12.37616,130.87748,Education/training Business Or Centre: Privately Operated Registered Training Organisation,TRUE,TRUE,TRUE,TRUE,TRUE,TRUE,TRUE,TRUE
170,The Suzan Johnston Organization (Aust) Pty Ltd,TRUE,Current,Australian Skills Quality Authority,National Vocational Education and Training Regulator Act 2011,"Level 22 120 Spencer St, MELBOURNE, VIC, 3000",Victoria,-37.81821,144.95433,Education/training Business Or Centre: Privately Operated Registered Training Organisation,TRUE,TRUE,TRUE,TRUE,TRUE,TRUE,TRUE,TRUE
173,Holmes Commercial Colleges (Melbourne) Ltd,TRUE,Current,Australian Skills Quality Authority,National Vocational Education and Training Regulator Act 2011,"185 Spring Street, Melbourne, VIC, 3000",Victoria,-37.8103,144.97227,Education/training Business Or Centre: Privately Operated Registered Training Organisation,FALSE,TRUE,FALSE,FALSE,FALSE,FALSE,FALSE,FALSE
186,Clip Joint Academy of Hairdressing Pty Ltd as trustee for the Clip Joint Academy Unit Trust,TRUE,Current,Australian Skills Quality Authority,National Vocational Education and Training Regulator Act 2011,"1st Floor
86 Gawler Place, Adelaide, SA, 5000",South Australia,-34.92464,138.6022,Education/training Business Or Centre: Privately Operated Registered Training Organisation,TRUE,TRUE,TRUE,TRUE,TRUE,TRUE,TRUE,TRUE
195,PARTEC (QLD) Pty. Ltd.,TRUE,Current,Australian Skills Quality Authority,National Vocational Education and Training Regulator Act 2011,"1030 CAVENDISH RD, Mount Gravatt East, QLD, 4122",Queensland,-27.52597,153.09173,Education/training Business Or Centre: Privately Operated Registered Training Organisation,TRUE,TRUE,TRUE,FALSE,TRUE,TRUE,TRUE,FALSE
201,Transport Industries Skills Centre Inc,TRUE,Current,Australian Skills Quality Authority,National Vocational Education and Training Regulator Act 2011,"441 Sutton Rd, Majura, ACT, 2609",Australian Capital Territory,-35.32339,149.24017,Industry Association,TRUE,TRUE,TRUE,TRUE,TRUE,TRUE,TRUE,TRUE
249,MVJ Enterprises Pty Ltd,TRUE,Current,Australian Skills Quality Authority,National Vocational Education and Training Regulator Act 2011,"339 Albany Highway, Victoria Park, WA, 6100",Western Australia,-31.97353,115.89637,Education/training Business Or Centre: Privately Operated Registered Training Organisation,TRUE,TRUE,TRUE,TRUE,TRUE,TRUE,TRUE,TRUE
260,Chisholm Institute,TRUE,Current,Australian Skills Quality Authority,National Vocational Education and Training Regulator Act 2011,"121 Stud Road, Dandenong, VIC, 3175",Victoria,-37.97544,145.22237,"Technical And Further Education Institute, Skills Institute Or Polytechnic",TRUE,TRUE,TRUE,TRUE,TRUE,TRUE,TRUE,TRUE
264,SA Ambulance Service,TRUE,Current,Australian Skills Quality Authority,National Vocational Education and Training Regulator Act 2011,"216 Greenhill Road, Eastwood, SA, 5063",South Australia,-34.9408,138.61944,Enterprise - Government,FALSE,FALSE,FALSE,TRUE,FALSE,FALSE,FALSE,FALSE
269,Think: Colleges Pty Ltd,TRUE,Current,Australian Skills Quality Authority,National Vocational Education and Training Regulator Act 2011,"1-37 Foveaux St, SURRY HILLS, NSW, 2010",New South Wales,-33.883864,151.209267,Education/training Business Or Centre: Privately Operated Registered Training Organisation,TRUE,TRUE,TRUE,TRUE,FALSE,FALSE,FALSE,FALSE
275,TAFE Queensland,TRUE,Current,Australian Skills Quality Authority,National Vocational Education and Training Regulator Act 2011,"1030 Cavendish Rd, MOUNT GRAVATT EAST, QLD, 4122",Queensland,-27.52597,153.09173,"Technical And Further Education Institute, Skills Institute Or Polytechnic",TRUE,TRUE,TRUE,TRUE,TRUE,TRUE,TRUE,TRUE
305,Jobs South West Inc,TRUE,Current,Western Australian Training Accreditation Council (WA TAC),Section 27(1) of the Vocational Education and Training Act WA 1996,"1/101 Victoria Street, BUNBURY, WA, 6230",Western Australia,-33.31877,115.63645,Education/training Business Or Centre: Privately Operated Registered Training Organisation,FALSE,FALSE,FALSE,FALSE,TRUE,FALSE,FALSE,FALSE
328,The Trustee for the Salvation Army (NSW) Property Trust,TRUE,Current,Australian Skills Quality Authority,National Vocational Education and Training Regulator Act 2011,"Suite 1 Level 1 426 Church St, PARRAMATTA, NSW, 2150",New South Wales,-33.8169,151.00344,Community Based Adult Education Provider,TRUE,TRUE,TRUE,TRUE,TRUE,TRUE,TRUE,TRUE
361,Skill Hire WA Pty Ltd,TRUE,Current,Australian Skills Quality Authority,National Vocational Education and Training Regulator Act 2011,"Unit 3 271 Berkshire Rd, FORRESTFIELD, WA, 6058",Western Australia,-31.96523,115.99735,Education/training Business Or Centre: Privately Operated Registered Training Organisation,TRUE,TRUE,TRUE,TRUE,TRUE,TRUE,TRUE,TRUE
366,GEM College of International Business (Australia) Pty Ltd,TRUE,Current,Australian Skills Quality Authority,National Vocational Education and Training Regulator Act 2011,"52 Prospect Rd, PROSPECT, SA, 5082",South Australia,-34.89255,138.59403,Education/training Business Or Centre: Privately Operated Registered Training Organisation,TRUE,TRUE,TRUE,TRUE,TRUE,TRUE,TRUE,TRUE
373,Charles Darwin University,TRUE,Current,Australian Skills Quality Authority,National Vocational Education and Training Regulator Act 2011,"Ellengowan Drive, Casuarina, NT, 0810",Northern Territory,-12.36556,130.8743,University - Government,TRUE,TRUE,TRUE,TRUE,TRUE,TRUE,TRUE,TRUE
381,Top End Group Training Pty Ltd,TRUE,Current,Australian Skills Quality Authority,National Vocational Education and Training Regulator Act 2011,"38 Woods Street, Darwin, NT, 0800",Northern Territory,-12.46111,130.84426,Education/training Business Or Centre: Privately Operated Registered Training Organisation,TRUE,TRUE,TRUE,TRUE,TRUE,TRUE,TRUE,TRUE
384,NORTHERN TERRITORY OF AUSTRALIA,TRUE,Current,Australian Skills Quality Authority,National Vocational Education and Training Regulator Act 2011,"Peter McAulay Centre

McMillians Road, Berrimah, NT, 0828",Northern Territory,-12.4103,130.9228,Enterprise - Government,TRUE,TRUE,TRUE,TRUE,TRUE,TRUE,TRUE,TRUE
386,Hospitality Group Training (WA) Inc,TRUE,Current,Australian Skills Quality Authority,National Vocational Education and Training Regulator Act 2011,"38 Parliament Place, WEST PERTH, WA, 6005",Western Australia,-31.95045,115.84465,Education/training Business Or Centre: Privately Operated Registered Training Organisation,FALSE,FALSE,FALSE,FALSE,TRUE,FALSE,FALSE,FALSE
389,Manageering Pty Ltd,TRUE,Current,Australian Skills Quality Authority,National Vocational Education and Training Regulator Act 2011,"41 Eagle Dr, JANDAKOT, WA, 6164",Western Australia,-32.09699,115.88,Education/training Business Or Centre: Privately Operated Registered Training Organisation,FALSE,FALSE,FALSE,FALSE,TRUE,FALSE,FALSE,FALSE
392,St John Ambulance (Western Australia) Ltd,TRUE,Current,Australian Skills Quality Authority,National Vocational Education and Training Regulator Act 2011,"209 Great Eastern Highway, BELMONT, WA, 6984",Western Australia,-31.94526,115.9219,Community Based Adult Education Provider,TRUE,TRUE,TRUE,TRUE,TRUE,TRUE,TRUE,TRUE
393,Marr Mooditj Training Aboriginal Corporation,TRUE,Current,Western Australian Training Accreditation Council (WA TAC),Section 27(1) of the Vocational Education and Training Act WA 1996,"295 Manning Road, WATERFORD, WA, 6152",Western Australia,-32.01565,115.89297,Education/training Business Or Centre: Privately Operated Registered Training Organisation,FALSE,FALSE,FALSE,FALSE,TRUE,FALSE,FALSE,FALSE
397,Department of Biodiversity Conservation and Attractions,TRUE,Current,Australian Skills Quality Authority,National Vocational Education and Training Regulator Act 2011,"17 Dick Perry Ave, Kensington, WA, 6151",Western Australia,-31.99318,115.88345,Enterprise - Government,TRUE,TRUE,TRUE,TRUE,TRUE,TRUE,TRUE,TRUE
412,The Real Estate Institute of Tasmania,TRUE,Current,Australian Skills Quality Authority,National Vocational Education and Training Regulator Act 2011,"Real Estate House
33 Melville Street, Hobart, TAS, 7000",Tasmania,-42.87901,147.32552,Industry Association,FALSE,FALSE,FALSE,FALSE,FALSE,TRUE,FALSE,FALSE
416,Holmesglen Institute,TRUE,Current,Australian Skills Quality Authority,National Vocational Education and Training Regulator Act 2011,"1 Batesford Road, Chadstone, VIC, 3148",Victoria,-37.87537,145.0922,"Technical And Further Education Institute, Skills Institute Or Polytechnic",TRUE,TRUE,TRUE,TRUE,TRUE,TRUE,TRUE,TRUE
417,Gippsland Institute of Technical and Further Education,TRUE,Current,Australian Skills Quality Authority,National Vocational Education and Training Regulator Act 2011,"Cnr Princes Drive & Monash Way, Morwell, VIC, 3840",Victoria,-38.23954,146.41954,"Technical And Further Education Institute, Skills Institute Or Polytechnic",TRUE,TRUE,TRUE,TRUE,TRUE,TRUE,TRUE,TRUE
427,SARINA RUSSO SCHOOLS AUSTRALIA PTY LTD,TRUE,Current,Australian Skills Quality Authority,National Vocational Education and Training Regulator Act 2011,"100 Eagle Street, Brisbane City, QLD, 4000",Queensland,-27.46732,153.02952,Education/training Business Or Centre: Privately Operated Registered Training Organisation,TRUE,TRUE,TRUE,TRUE,TRUE,TRUE,TRUE,TRUE
442,Department of Defence,TRUE,Current,Australian Skills Quality Authority,National Vocational Education and Training Regulator Act 2011,"Australian Defence College, Kirkpatrick St, Weston, ACT, 2612",Australian Capital Territory,-35.32156,149.05633,Enterprise - Government,TRUE,TRUE,TRUE,TRUE,TRUE,TRUE,TRUE,TRUE
449,Youth With A Mission Canberra Inc,TRUE,Current,Australian Skills Quality Authority,National Vocational Education and Training Regulator Act 2011,"76 Federal Highway, Watson, ACT, 2602",Australian Capital Territory,-35.22664,149.16033,Education/training Business Or Centre: Privately Operated Registered Training Organisation,TRUE,TRUE,TRUE,TRUE,FALSE,TRUE,TRUE,TRUE
452,The Pharmacy Guild of Australia,TRUE,Current,Australian Skills Quality Authority,National Vocational Education and Training Regulator Act 2011,"132 Leichhardt St, SPRING HILL, QLD, 4000",Queensland,-27.462338,153.025039,Industry Association,TRUE,TRUE,TRUE,TRUE,TRUE,TRUE,TRUE,TRUE
485,Mobile Welding Services Pty Ltd,TRUE,Current,Australian Skills Quality Authority,National Vocational Education and Training Regulator Act 2011,"69 Melbourne Rd, RIVERSTONE, NSW, 2765",New South Wales,-33.66157,150.86024,Education/training Business Or Centre: Privately Operated Registered Training Organisation,TRUE,TRUE,TRUE,TRUE,TRUE,TRUE,TRUE,TRUE
561,Hamilton Secondary College,TRUE,Current,Australian Skills Quality Authority,National Vocational Education and Training Regulator Act 2011,"815 Marion Road, Mitchell Park, SA, 5043",South Australia,-34.9975,138.55739,School - Government,FALSE,FALSE,FALSE,TRUE,FALSE,FALSE,FALSE,FALSE
573,South Australian Metropolitan Fire Service,TRUE,Current,Australian Skills Quality Authority,National Vocational Education and Training Regulator Act 2011,"99 Wakefield Street, Adelaide, SA, 5000",South Australia,-34.92894,138.60449,Enterprise - Government,TRUE,TRUE,TRUE,TRUE,TRUE,TRUE,TRUE,TRUE
577,Logging Investigation and Training Association Inc,TRUE,Current,Australian Skills Quality Authority,National Vocational Education and Training Regulator Act 2011,"Wireless Road West, Mount Gambier, SA, 5290",South Australia,-37.80676,140.76612,Education/training Business Or Centre: Privately Operated Registered Training Organisation,TRUE,TRUE,TRUE,TRUE,TRUE,TRUE,TRUE,TRUE
581,Carlisle Learning and Development Pty Ltd,TRUE,Current,Australian Skills Quality Authority,National Vocational Education and Training Regulator Act 2011,"20 Oborn Rd, MOUNT BARKER, SA, 5251",South Australia,-35.08004,138.87388,Education/training Business Or Centre: Privately Operated Registered Training Organisation,TRUE,TRUE,TRUE,TRUE,TRUE,TRUE,TRUE,TRUE
590,AMES Australia,TRUE,Current,Australian Skills Quality Authority,National Vocational Education and Training Regulator Act 2011,"Level 4 1 Little Collins St, MELBOURNE, VIC, 3000",Victoria,-37.8172,144.95986,Community Based Adult Education Provider,TRUE,TRUE,FALSE,FALSE,FALSE,FALSE,FALSE,FALSE
609,Amana Living Incorporated,TRUE,Current,Western Australian Training Accreditation Council (WA TAC),Section 27(1) of the Vocational Education and Training Act WA 1996,"level 1/1-9 Tanunda Dr, Rivervale, WA, 6103",Western Australia,-31.952312,115.914709,Education/training Business Or Centre: Privately Operated Registered Training Organisation,FALSE,FALSE,FALSE,FALSE,TRUE,FALSE,FALSE,FALSE
627,MTA WA Training Inc,TRUE,Current,Western Australian Training Accreditation Council (WA TAC),Section 27(1) of the Vocational Education and Training Act WA 1996,"253 Balcatta Road, BALCATTA, WA, 6021",Western Australia,-31.86321,115.82495,Industry Association,FALSE,FALSE,FALSE,FALSE,TRUE,FALSE,FALSE,FALSE
645,Department for Correctional Services,TRUE,Current,Australian Skills Quality Authority,National Vocational Education and Training Regulator Act 2011,"400 King William Street, Adelaide, SA, 5000",South Australia,-34.93379,138.60071,Enterprise - Government,TRUE,TRUE,TRUE,TRUE,TRUE,TRUE,TRUE,TRUE
647,Construction Industry Training Centre Inc,TRUE,Current,Australian Skills Quality Authority,National Vocational Education and Training Regulator Act 2011,"491 - 499 South Road, Regency Park, SA, 5942",South Australia,-34.86711,138.57191,Education/training Business Or Centre: Privately Operated Registered Training Organisation,TRUE,TRUE,TRUE,TRUE,TRUE,TRUE,TRUE,TRUE
649,Australian Fisheries Academy Ltd,TRUE,Current,Australian Skills Quality Authority,National Vocational Education and Training Regulator Act 2011,"Fishing Industry House
Dockside, Port Adelaide, SA, 5015",South Australia,-34.79588,138.52196,Education/training Business Or Centre: Privately Operated Registered Training Organisation,TRUE,TRUE,TRUE,TRUE,TRUE,TRUE,TRUE,TRUE
653,Top Office Personnel Pty Ltd,TRUE,Current,Australian Skills Quality Authority,National Vocational Education and Training Regulator Act 2011,"9 Darling Street, Ipswich, QLD, 4305",Queensland,-27.61299,152.75651,Education/training Business Or Centre: Privately Operated Registered Training Organisation,FALSE,FALSE,TRUE,FALSE,FALSE,FALSE,FALSE,FALSE
662,RRW and Co Pty Ltd,TRUE,Current,Australian Skills Quality Authority,National Vocational Education and Training Regulator Act 2011,"Ground Floor
167 Logan Road, Woolloongabba, QLD, 4102",Queensland,-27.49269,153.04066,Education/training Business Or Centre: Privately Operated Registered Training Organisation,TRUE,TRUE,TRUE,TRUE,TRUE,TRUE,TRUE,TRUE
667,Max Solutions Pty Ltd,TRUE,Current,Australian Skills Quality Authority,National Vocational Education and Training Regulator Act 2011,"Suite 4 107 Miles Platting Rd, EIGHT MILE PLAINS, QLD, 4113",Queensland,-27.57786,153.09735,Education/training Business Or Centre: Privately Operated Registered Training Organisation,TRUE,TRUE,TRUE,TRUE,TRUE,TRUE,TRUE,TRUE
670,The Australian Institute of Professional Counsellors Pty Ltd,TRUE,Current,Australian Skills Quality Authority,National Vocational Education and Training Regulator Act 2011,"230 Brunswick St, FORTITUDE VALLEY, QLD, 4006",Queensland,-27.45582,153.03404,Education/training Business Or Centre: Privately Operated Registered Training Organisation,TRUE,TRUE,TRUE,TRUE,TRUE,TRUE,TRUE,TRUE
677,Wynnum Manly Employment and Training Assoc Inc,TRUE,Current,Australian Skills Quality Authority,National Vocational Education and Training Regulator Act 2011,"58 Yamboyna  Street, Manly, QLD, 4179",Queensland,-27.45734,153.18083,Community Based Adult Education Provider,TRUE,TRUE,TRUE,TRUE,TRUE,TRUE,TRUE,TRUE
678,Guardrite Security and Industry Training Pty Limited,TRUE,Current,Australian Skills Quality Authority,National Vocational Education and Training Regulator Act 2011,"86 Bathurst St, LIVERPOOL, NSW, 2170",New South Wales,-33.92421,150.92121,Education/training Business Or Centre: Privately Operated Registered Training Organisation,TRUE,TRUE,TRUE,TRUE,TRUE,TRUE,TRUE,TRUE
686,AUSTRALIAN TRAINING ACADEMY PTY. LTD.,TRUE,Current,Australian Skills Quality Authority,National Vocational Education and Training Regulator Act 2011,"49 Chetwynd St, LOGANHOLME, QLD, 4129",Queensland,-27.67966,153.19222,Education/training Business Or Centre: Privately Operated Registered Training Organisation,TRUE,TRUE,TRUE,TRUE,TRUE,TRUE,TRUE,TRUE
699,CSTC Pty Ltd,TRUE,Current,Australian Skills Quality Authority,National Vocational Education and Training Regulator Act 2011,"878 Beaudesert Rd, COOPERS PLAINS, QLD, 4108",Queensland,-27.564,153.0233,Education/training Business Or Centre: Privately Operated Registered Training Organisation,TRUE,TRUE,TRUE,TRUE,TRUE,TRUE,TRUE,TRUE
709,SKILL CENTRED QUEENSLAND INC,TRUE,Current,Australian Skills Quality Authority,National Vocational Education and Training Regulator Act 2011,"Lot 391 Morris St, GYMPIE, QLD, 4570",Queensland,-26.16898,152.66657,Education/training Business Or Centre: Privately Operated Registered Training Organisation,TRUE,TRUE,TRUE,TRUE,TRUE,TRUE,TRUE,TRUE
773,Vocational Language Learning Centres (Aust.) Pty Ltd,TRUE,Current,Australian Skills Quality Authority,National Vocational Education and Training Regulator Act 2011,"28A Thomas Street, East Devonport, TAS, 7310",Tasmania,-41.17872,146.37029,Education/training Business Or Centre: Privately Operated Registered Training Organisation,TRUE,TRUE,TRUE,TRUE,TRUE,TRUE,TRUE,TRUE
812,The Quest Group Pty Ltd,TRUE,Current,Australian Skills Quality Authority,National Vocational Education and Training Regulator Act 2011,"Office 12 7 Beissel St, BELCONNEN, ACT, 2617",Australian Capital Territory,-35.23535,149.06536,Education/training Business Or Centre: Privately Operated Registered Training Organisation,TRUE,TRUE,TRUE,TRUE,TRUE,TRUE,TRUE,TRUE
826,First Impressions Resources Pty Ltd,TRUE,Current,Australian Skills Quality Authority,National Vocational Education and Training Regulator Act 2011,"Unit 11 2962 Logan Rd, UNDERWOOD, QLD, 4119",Queensland,-27.61107,153.11692,Education/training Business Or Centre: Privately Operated Registered Training Organisation,TRUE,TRUE,TRUE,TRUE,TRUE,TRUE,TRUE,TRUE
843,Department of Justice,TRUE,Current,Western Australian Training Accreditation Council (WA TAC),Section 27(1) of the Vocational Education and Training Act WA 1996,"4 Allen Court, BENTLEY, WA, 6102",Western Australia,-32.00117,115.89727,Enterprise - Government,FALSE,FALSE,FALSE,FALSE,TRUE,FALSE,FALSE,FALSE
854,The Royal Life Saving Society Western Australia,TRUE,Current,Australian Skills Quality Authority,National Vocational Education and Training Regulator Act 2011,"McGillivray Road, Mount Claremont, WA, 6010",Western Australia,-31.95103,115.78715,Community Based Adult Education Provider,TRUE,TRUE,TRUE,TRUE,TRUE,TRUE,TRUE,TRUE
855,Taminmin High School Council Inc,TRUE,Current,Australian Skills Quality Authority,National Vocational Education and Training Regulator Act 2011,"Challoner Circuit, Humpty Doo, NT, 0836",Northern Territory,-12.5791,131.10102,School - Government,FALSE,FALSE,FALSE,FALSE,FALSE,FALSE,TRUE,FALSE
857,Centre for Appropriate Technology Limited,TRUE,Current,Australian Skills Quality Authority,National Vocational Education and Training Regulator Act 2011,"Desert Peoples Centre, Desert Knowledge Precinct, Alice Springs, NT, 0870",Northern Territory,-23.70068,133.88071,Community Based Adult Education Provider,TRUE,TRUE,TRUE,TRUE,TRUE,TRUE,TRUE,TRUE
859,Royal Life Saving Society (Australia) NT Branch Inc,TRUE,Current,Australian Skills Quality Authority,National Vocational Education and Training Regulator Act 2011,"77 Ross Smith Avenue, Parap, NT, 0804",Northern Territory,-12.42821,130.8415,Education/training Business Or Centre: Privately Operated Registered Training Organisation,FALSE,FALSE,FALSE,FALSE,FALSE,FALSE,TRUE,FALSE
860,Industries Services Training Pty Ltd,TRUE,Current,Australian Skills Quality Authority,National Vocational Education and Training Regulator Act 2011,"Factory 1 76 Minnie St, SOUTHPORT, QLD, 4215",Queensland,-27.9757,153.4036,Education/training Business Or Centre: Privately Operated Registered Training Organisation,TRUE,TRUE,TRUE,TRUE,TRUE,TRUE,TRUE,TRUE
872,Mercury Colleges Pty. Limited,TRUE,Current,Australian Skills Quality Authority,National Vocational Education and Training Regulator Act 2011,"Lvls 1 & 2, 245 Castlereagh Street, Sydney, NSW, 2000",New South Wales,-33.8763,151.20853,Education/training Business Or Centre: Privately Operated Registered Training Organisation,TRUE,TRUE,TRUE,TRUE,TRUE,TRUE,TRUE,TRUE
927,Navitas Skilled Futures Pty Ltd,TRUE,Current,Australian Skills Quality Authority,National Vocational Education and Training Regulator Act 2011,"Level 12, 255 Elizabeth St, SYDNEY, NSW, 2000",New South Wales,-33.87571,151.2092,Education/training Business Or Centre: Privately Operated Registered Training Organisation,TRUE,TRUE,TRUE,TRUE,TRUE,TRUE,TRUE,TRUE
996,Royal Life Saving Society Australia South Australian Branch Inc,TRUE,Current,Australian Skills Quality Authority,National Vocational Education and Training Regulator Act 2011,"21-31 Blacks Rd, GILLES PLAINS, SA, 5086",South Australia,-34.853943,138.652743,Community Based Adult Education Provider,TRUE,TRUE,TRUE,TRUE,TRUE,TRUE,TRUE,TRUE
1004,Catholic Church Endowment Society Inc,TRUE,Current,Australian Skills Quality Authority,National Vocational Education and Training Regulator Act 2011,"45 Wakefield Street, Adelaide, SA, 5000",South Australia,-34.92899,138.60207,Community Based Adult Education Provider,FALSE,FALSE,FALSE,TRUE,FALSE,FALSE,FALSE,FALSE
1007,Allstaff Training Consultants Pty Ltd,TRUE,Current,Australian Skills Quality Authority,National Vocational Education and Training Regulator Act 2011,"Level 2 25 Leigh St, ADELAIDE, SA, 5000",South Australia,-34.92339,138.59777,Education/training Business Or Centre: Privately Operated Registered Training Organisation,FALSE,FALSE,FALSE,TRUE,FALSE,FALSE,FALSE,FALSE
1036,The Quality Training and Hospitality College Pty Ltd,TRUE,Current,Australian Skills Quality Authority,National Vocational Education and Training Regulator Act 2011,"Suite 3, Level 1, 8 Greenhill Road, Wayville, SA, 5034",South Australia,-34.94261,138.58528,Education/training Business Or Centre: Privately Operated Registered Training Organisation,TRUE,TRUE,TRUE,TRUE,TRUE,TRUE,TRUE,TRUE
1044,Skills Training And Placement People Inc,TRUE,Current,Australian Skills Quality Authority,National Vocational Education and Training Regulator Act 2011,"Level 1
60 Waymouth Street, Adelaide, SA, 5000",South Australia,-34.92568,138.59732,Education/training Business Or Centre: Privately Operated Registered Training Organisation,TRUE,TRUE,TRUE,TRUE,TRUE,TRUE,TRUE,TRUE
1050,Licensed Club Industry Training Foundation Inc.,TRUE,Current,Australian Skills Quality Authority,National Vocational Education and Training Regulator Act 2011,"222a Henley Beach Road, Torrensville, SA, 5031",South Australia,-34.92403,138.55605,Industry Association,FALSE,FALSE,FALSE,TRUE,FALSE,FALSE,FALSE,FALSE
1056,Australian Federal Police College,TRUE,Current,Australian Skills Quality Authority,National Vocational Education and Training Regulator Act 2011,"9 Brisbane Avenue, Barton, ACT, 2600",Australian Capital Territory,-35.30994,149.1376,Enterprise - Government,TRUE,TRUE,TRUE,TRUE,TRUE,TRUE,TRUE,TRUE
1074,Department of Corrections,TRUE,Current,Australian Skills Quality Authority,National Vocational Education and Training Regulator Act 2011,"Heritage House, 6 Knuckley Street, DARWIN, NT, 0800",Northern Territory,-12.46496,130.84048,Enterprise - Government,FALSE,FALSE,FALSE,FALSE,FALSE,FALSE,TRUE,FALSE
1079,State Fire Commission,TRUE,Current,Australian Skills Quality Authority,National Vocational Education and Training Regulator Act 2011,"Cnr Argyle & Melville Streets, Hobart, TAS, 7000",Tasmania,-42.87919,147.32712,Enterprise - Government,TRUE,TRUE,TRUE,TRUE,TRUE,TRUE,TRUE,TRUE
1085,The Arnhem Land Progress Aboriginal Corporation,TRUE,Current,Australian Skills Quality Authority,National Vocational Education and Training Regulator Act 2011,"70 O'Sullivan Circuit, East Arm, NT, 0822",Northern Territory,-12.47198,130.91328,Education/training Business Or Centre: Privately Operated Registered Training Organisation,TRUE,TRUE,TRUE,TRUE,TRUE,TRUE,TRUE,TRUE
1091,Housing Industry Association Ltd,TRUE,Current,Australian Skills Quality Authority,National Vocational Education and Training Regulator Act 2011,"8 Gwynne St, CREMORNE, VIC, 3121",Victoria,-37.827183,144.993243,Education/training Business Or Centre: Privately Operated Registered Training Organisation,TRUE,TRUE,TRUE,TRUE,TRUE,TRUE,TRUE,TRUE
1112,Seafood and Maritime Industries Training Ltd,TRUE,Current,Australian Skills Quality Authority,National Vocational Education and Training Regulator Act 2011,"Unit 10-12
110 Reichardt Road, Winnellie, NT, 0820",Northern Territory,-12.42901,130.86939,Education/training Business Or Centre: Privately Operated Registered Training Organisation,TRUE,TRUE,TRUE,TRUE,TRUE,TRUE,TRUE,TRUE
1126,Work & Training Limited,TRUE,Current,Australian Skills Quality Authority,National Vocational Education and Training Regulator Act 2011,"1 Bowen Road, Moonah, TAS, 7009",Tasmania,-42.85014,147.30701,Industry Association,FALSE,FALSE,FALSE,FALSE,FALSE,TRUE,FALSE,FALSE
1128,Tasmanian Networks Pty Ltd,TRUE,Current,Australian Skills Quality Authority,National Vocational Education and Training Regulator Act 2011,"8 Mornington Road, Mornington, TAS, 7018",Tasmania,-42.85956,147.39461,Enterprise - Non-Government,FALSE,FALSE,FALSE,FALSE,FALSE,TRUE,FALSE,FALSE
1129,Guilford Young College,TRUE,Current,Australian Skills Quality Authority,National Vocational Education and Training Regulator Act 2011,"74 Bowden Street, Glenorchy, TAS, 7010",Tasmania,-42.83497,147.27022,School - Catholic,TRUE,TRUE,TRUE,TRUE,TRUE,TRUE,TRUE,TRUE
1191,Supreme Business College Pty Ltd,TRUE,Current,Australian Skills Quality Authority,National Vocational Education and Training Regulator Act 2011,"Level 6, 505 George Street, SYDNEY, NSW, 2000",New South Wales,-33.87504,151.20629,Education/training Business Or Centre: Privately Operated Registered Training Organisation,TRUE,TRUE,TRUE,TRUE,TRUE,TRUE,TRUE,TRUE
1223,Nepean Community College Inc,TRUE,Current,Australian Skills Quality Authority,National Vocational Education and Training Regulator Act 2011,"Shop 115b Westfield Penrith
585 High Street, Penrith, NSW, 2750",New South Wales,-33.75108,150.69402,Community Based Adult Education Provider,TRUE,TRUE,TRUE,TRUE,TRUE,TRUE,TRUE,TRUE
1252,Western Riverina Community College Inc,TRUE,Current,Australian Skills Quality Authority,National Vocational Education and Training Regulator Act 2011,"23 Hickey Crescent, Griffith, NSW, 2680",New South Wales,-34.28395,146.05917,Community Based Adult Education Provider,TRUE,FALSE,FALSE,FALSE,FALSE,FALSE,FALSE,FALSE
1327,Basair Australia Pty Ltd,TRUE,Current,Australian Skills Quality Authority,National Vocational Education and Training Regulator Act 2011,"628/23-25 Airport Ave, Bankstown Airport, NSW, 2200",New South Wales,-33.91863,150.9922,Education/training Business Or Centre: Privately Operated Registered Training Organisation,TRUE,TRUE,TRUE,TRUE,TRUE,TRUE,TRUE,TRUE
1340,Hillsong College Ltd,TRUE,Current,Australian Skills Quality Authority,National Vocational Education and Training Regulator Act 2011,"1-5 Solent Circuit, Baulkham Hills, NSW, 2153",New South Wales,-33.73299,150.95945,Community Based Adult Education Provider,TRUE,TRUE,TRUE,TRUE,TRUE,TRUE,TRUE,TRUE
1362,Christine McGibbon Pty Ltd,TRUE,Current,Australian Skills Quality Authority,National Vocational Education and Training Regulator Act 2011,"310 Vulture St, KANGAROO POINT, QLD, 4169",Queensland,-27.4839,153.03342,Education/training Business Or Centre: Privately Operated Registered Training Organisation,FALSE,TRUE,TRUE,FALSE,FALSE,FALSE,FALSE,FALSE
1373,YWCA of Canberra,TRUE,Current,Australian Skills Quality Authority,National Vocational Education and Training Regulator Act 2011,"Level 2 & 3

71 Northbourne Avenue, Canberra, ACT, 2601",Australian Capital Territory,-35.27633,149.12919,Community Based Adult Education Provider,TRUE,TRUE,TRUE,TRUE,TRUE,TRUE,TRUE,TRUE
1441,Australian College of Commerce & Management Pty Ltd,TRUE,Current,Australian Skills Quality Authority,National Vocational Education and Training Regulator Act 2011,"8/36 Auburn St, Wollongong, NSW, 2500",New South Wales,-34.43725,150.88722,Education/training Business Or Centre: Privately Operated Registered Training Organisation,TRUE,TRUE,TRUE,TRUE,TRUE,TRUE,TRUE,TRUE
1476,Queensland College of Dance,TRUE,Current,Australian Skills Quality Authority,National Vocational Education and Training Regulator Act 2011,"26 Glentanna St, KEDRON, QLD, 4031",Queensland,-27.39828,153.02957,Education/training Business Or Centre: Privately Operated Registered Training Organisation,TRUE,TRUE,TRUE,TRUE,TRUE,TRUE,TRUE,TRUE
1511,The University of Queensland,TRUE,Current,Australian Skills Quality Authority,National Vocational Education and Training Regulator Act 2011,"WARREGO HWY, Gatton, QLD, 4343",Queensland,-27.53856,152.2813,University - Government,TRUE,TRUE,TRUE,TRUE,TRUE,TRUE,TRUE,TRUE
1549,Queensland Police Service,TRUE,Current,Australian Skills Quality Authority,National Vocational Education and Training Regulator Act 2011,"RUDD ST, Oxley, QLD, 4075",Queensland,-27.57525,152.97344,Enterprise - Government,FALSE,FALSE,TRUE,FALSE,FALSE,FALSE,FALSE,FALSE
1585,Brisbane School of Distance Education,TRUE,Current,Australian Skills Quality Authority,National Vocational Education and Training Regulator Act 2011,"4 Cavendish Rd, Coorparoo, QLD, 4151",Queensland,-27.48505,153.05316,School - Government,FALSE,FALSE,TRUE,FALSE,FALSE,FALSE,FALSE,FALSE
1607,Skill360 Australia Limited,TRUE,Current,Australian Skills Quality Authority,National Vocational Education and Training Regulator Act 2011,"1 Wilkinson St, Manunda, QLD, 4870",Queensland,-16.92074,145.757,Education/training Business Or Centre: Privately Operated Registered Training Organisation,TRUE,TRUE,TRUE,TRUE,TRUE,TRUE,TRUE,TRUE
1623,Blue Tongue Training Pty Ltd,TRUE,Current,Australian Skills Quality Authority,National Vocational Education and Training Regulator Act 2011,"Level 2 251-253 St Georges Tce, PERTH, WA, 6000",Western Australia,-31.95288,115.84972,Education/training Business Or Centre: Privately Operated Registered Training Organisation,TRUE,TRUE,TRUE,TRUE,TRUE,TRUE,TRUE,TRUE
1627,Darling Downs Hospital and Health Service,TRUE,Current,Australian Skills Quality Authority,National Vocational Education and Training Regulator Act 2011,"Baillie Henderson Hospital, Penrose Unit, Toowoomba, QLD, 4350",Queensland,-27.55451,151.94179,Enterprise - Government,FALSE,FALSE,TRUE,FALSE,FALSE,FALSE,FALSE,FALSE
1674,Southburn Pty Ltd as Trustee for the Lennon Family Trust,TRUE,Current,Australian Skills Quality Authority,National Vocational Education and Training Regulator Act 2011,"11 Kyle Street, Emerald, QLD, 4720",Queensland,-23.4976,148.15123,Education/training Business Or Centre: Privately Operated Registered Training Organisation,TRUE,FALSE,TRUE,FALSE,FALSE,FALSE,FALSE,FALSE
1685,R and P Gray Holdings Pty Ltd as Trustee for The Gray Family Trust,TRUE,Current,Australian Skills Quality Authority,National Vocational Education and Training Regulator Act 2011,"12 MOUNT GRAVATT CAPALABA RD, Upper Mount Gravatt, QLD, 4122",Queensland,-27.55792,153.08588,Education/training Business Or Centre: Privately Operated Registered Training Organisation,TRUE,TRUE,TRUE,TRUE,TRUE,TRUE,TRUE,TRUE
1704,Benchmark Power Pty Ltd,TRUE,Current,Australian Skills Quality Authority,National Vocational Education and Training Regulator Act 2011,"53 BENNETTS RD, Camp Hill, QLD, 4152",Queensland,-27.48956,153.06486,Education/training Business Or Centre: Privately Operated Registered Training Organisation,TRUE,TRUE,TRUE,TRUE,TRUE,TRUE,TRUE,TRUE
1709,JOHN & MARY IVANOV CONSOLIDATED,TRUE,Current,Australian Skills Quality Authority,National Vocational Education and Training Regulator Act 2011,"330 Bayswater Road, Garbutt, QLD, 4814",Queensland,-19.27401,146.76454,Education/training Business Or Centre: Privately Operated Registered Training Organisation,FALSE,FALSE,TRUE,FALSE,FALSE,FALSE,FALSE,FALSE
1718,Performance Training Pty Limited,TRUE,Current,Australian Skills Quality Authority,National Vocational Education and Training Regulator Act 2011,"8 Ure Court, Buderim, QLD, 4556",Queensland,-26.68366,153.0614,Education/training Business Or Centre: Privately Operated Registered Training Organisation,TRUE,TRUE,TRUE,TRUE,TRUE,TRUE,TRUE,TRUE
1719,TOOWOOMBA REGIONAL GROUP APPRENTICESHIP COMPANY PTY. LIMITED,TRUE,Current,Australian Skills Quality Authority,National Vocational Education and Training Regulator Act 2011,"56 Duhig Street, HARRISTOWN, QLD, 4350",Queensland,-27.56983,151.92986,Education/training Business Or Centre: Privately Operated Registered Training Organisation,TRUE,TRUE,TRUE,TRUE,TRUE,TRUE,TRUE,TRUE
1735,Simmonds & Bristow Pty. Ltd.,TRUE,Current,Australian Skills Quality Authority,National Vocational Education and Training Regulator Act 2011,"Unit 6 62 Curzon St, TENNYSON, QLD, 4105",Queensland,-27.52936,153.00478,Education/training Business Or Centre: Privately Operated Registered Training Organisation,TRUE,TRUE,TRUE,TRUE,TRUE,TRUE,TRUE,TRUE
1749,Cairns Beauty Academy Pty Ltd,TRUE,Current,Australian Skills Quality Authority,National Vocational Education and Training Regulator Act 2011,"Shop 9 31-33 Plaza Pde, MAROOCHYDORE, QLD, 4558",Queensland,-26.65704,153.08857,Education/training Business Or Centre: Privately Operated Registered Training Organisation,TRUE,TRUE,TRUE,TRUE,TRUE,TRUE,TRUE,TRUE
1782,Aiden Watson Pty Ltd,TRUE,Current,Australian Skills Quality Authority,National Vocational Education and Training Regulator Act 2011,"63 Gumdale St, WAKERLEY, QLD, 4154",Queensland,-27.48934,153.16404,Education/training Business Or Centre: Privately Operated Registered Training Organisation,FALSE,FALSE,TRUE,FALSE,FALSE,FALSE,FALSE,FALSE
1810,Noosa Community Training Centre Inc,TRUE,Current,Australian Skills Quality Authority,National Vocational Education and Training Regulator Act 2011,"Unit 9 91 Poinciana Ave, TEWANTIN, QLD, 4565",Queensland,-26.391902,153.037516,Community Based Adult Education Provider,FALSE,FALSE,TRUE,FALSE,FALSE,FALSE,FALSE,FALSE
1820,PCD Training Services Pty Ltd,TRUE,Current,Australian Skills Quality Authority,National Vocational Education and Training Regulator Act 2011,"Suite 212 147 Pirie St, ADELAIDE, SA, 5000",South Australia,-34.92512,138.60764,Education/training Business Or Centre: Privately Operated Registered Training Organisation,TRUE,TRUE,TRUE,TRUE,TRUE,TRUE,TRUE,TRUE
1826,Fraser Coast - Training Employment Support Service Inc,TRUE,Current,Australian Skills Quality Authority,National Vocational Education and Training Regulator Act 2011,"9 Woocoo Dr, Oakhurst, QLD, 4650",Queensland,-25.51638,152.61468,Education/training Business Or Centre: Privately Operated Registered Training Organisation,TRUE,TRUE,TRUE,TRUE,TRUE,TRUE,TRUE,TRUE
1847,STEPS Group Australia Limited,TRUE,Current,Australian Skills Quality Authority,National Vocational Education and Training Regulator Act 2011,"Unit 1 14 Palmerston Cct, PALMERSTON, NT, 0830",Northern Territory,-12.48051,130.98407,Industry Association,TRUE,TRUE,TRUE,TRUE,TRUE,TRUE,TRUE,TRUE
1858,Ambulance Tasmania,TRUE,Current,Australian Skills Quality Authority,National Vocational Education and Training Regulator Act 2011,"Lower Level, 12 Brisbane Street, Hobart, TAS, 7000",Tasmania,-42.87778,147.32575,Enterprise - Government,FALSE,FALSE,FALSE,FALSE,FALSE,TRUE,FALSE,FALSE
1886,Dovaston Consulting Group Pty Ltd,TRUE,Current,Australian Skills Quality Authority,National Vocational Education and Training Regulator Act 2011,"2/133 Mitchell Street, DARWIN, NT, 0800",Northern Territory,-12.46458,130.8408,Education/training Business Or Centre: Privately Operated Registered Training Organisation,TRUE,TRUE,TRUE,TRUE,TRUE,TRUE,TRUE,TRUE
1896,School of Hairdressing Pty Ltd,TRUE,Current,Australian Skills Quality Authority,National Vocational Education and Training Regulator Act 2011,"1st Floor, 189 William Street Arcade, William Street, Northbridge, WA, 6003",Western Australia,-31.94921,115.85871,Education/training Business Or Centre: Privately Operated Registered Training Organisation,FALSE,FALSE,FALSE,FALSE,TRUE,FALSE,FALSE,FALSE
1907,Work Health & Safety Foundation,TRUE,Current,Australian Skills Quality Authority,National Vocational Education and Training Regulator Act 2011,"128 Farrington Road, North Lake, WA, 6163",Western Australia,-32.0803,115.84552,Community Based Adult Education Provider,TRUE,TRUE,TRUE,TRUE,TRUE,TRUE,TRUE,TRUE
1915,Australian Higher Education Academy Pty Ltd,TRUE,Current,Australian Skills Quality Authority,National Vocational Education and Training Regulator Act 2011,"15, 200 Wellington Street, EAST PERTH, WA, 6004",Western Australia,-31.95431,115.86765,Education/training Business Or Centre: Privately Operated Registered Training Organisation,TRUE,TRUE,TRUE,TRUE,TRUE,TRUE,TRUE,TRUE
1918,ATI-Mirage Training and Business Solutions Pty Ltd,TRUE,Current,Western Australian Training Accreditation Council (WA TAC),Section 27(1) of the Vocational Education and Training Act WA 1996,"Cloisters Level 1, 863 Hay Street, PERTH, WA, 6000",Western Australia,-31.953,115.85328,Education/training Business Or Centre: Privately Operated Registered Training Organisation,FALSE,FALSE,FALSE,FALSE,TRUE,FALSE,FALSE,FALSE
1927,Real Estate Institute of Western Australia Inc,TRUE,Current,Western Australian Training Accreditation Council (WA TAC),Section 27(1) of the Vocational Education and Training Act WA 1996,"REIWA House, 215 Hay Street, SUBIACO, WA, 6008",Western Australia,-31.94735,115.83143,Industry Association,FALSE,FALSE,FALSE,FALSE,TRUE,FALSE,FALSE,FALSE
1933,Nationwide Training Pty Ltd,TRUE,Current,Western Australian Training Accreditation Council (WA TAC),Section 27(1) of the Vocational Education and Training Act WA 1996,"13 Collingwood Street, OSBORNE PARK, WA, 6017",Western Australia,-31.90009,115.81322,Education/training Business Or Centre: Privately Operated Registered Training Organisation,FALSE,FALSE,FALSE,FALSE,TRUE,FALSE,FALSE,FALSE
1938,Department of Fire and Emergency Services,TRUE,Current,Western Australian Training Accreditation Council (WA TAC),Section 27(1) of the Vocational Education and Training Act WA 1996,"547 Dundas Road, FORRESTFIELD, WA, 6058",Western Australia,-31.97298,115.98866,Enterprise - Government,FALSE,FALSE,FALSE,FALSE,TRUE,FALSE,FALSE,FALSE
1967,ETAS (WA) Pty Ltd,TRUE,Current,Western Australian Training Accreditation Council (WA TAC),Section 27(1) of the Vocational Education and Training Act WA 1996,"4/24 Parkland Road, OSBORNE PARK, WA, 6017",Western Australia,-31.916495,115.814272,Education/training Business Or Centre: Privately Operated Registered Training Organisation,FALSE,TRUE,FALSE,FALSE,TRUE,FALSE,FALSE,FALSE
1974,Construction Skills Centre,TRUE,Current,Western Australian Training Accreditation Council (WA TAC),Section 27(1) of the Vocational Education and Training Act WA 1996,"80 Beaufort Street, PERTH, WA, 6000",Western Australia,-31.94964,115.86265,Education/training Business Or Centre: Privately Operated Registered Training Organisation,FALSE,FALSE,FALSE,FALSE,TRUE,FALSE,FALSE,FALSE
1984,Training Services Australia Pty Ltd,TRUE,Current,Australian Skills Quality Authority,National Vocational Education and Training Regulator Act 2011,"3/799 Beaufort Street, Mount Lawley, WA, 6050",Western Australia,-31.92542,115.88055,Education/training Business Or Centre: Privately Operated Registered Training Organisation,TRUE,TRUE,TRUE,TRUE,TRUE,TRUE,TRUE,TRUE
2001,Rocky Bay Limited,TRUE,Current,Australian Skills Quality Authority,National Vocational Education and Training Regulator Act 2011,"60 McCabe Street, MOSMAN PARK, WA, 6012",Western Australia,-32.01981,115.76534,Community Based Adult Education Provider,FALSE,FALSE,FALSE,FALSE,TRUE,FALSE,FALSE,FALSE
2010,A.M.A. Services (W.A.) Pty Ltd,TRUE,Current,Australian Skills Quality Authority,National Vocational Education and Training Regulator Act 2011,"14 Stirling Highway, Nedlands, WA, 6009",Western Australia,-31.97793,115.81225,Education/training Business Or Centre: Privately Operated Registered Training Organisation,TRUE,TRUE,TRUE,TRUE,TRUE,TRUE,TRUE,TRUE
2026,Mamarapha College Ltd,TRUE,Current,Western Australian Training Accreditation Council (WA TAC),Section 27(1) of the Vocational Education and Training Act WA 1996,"289 Maroondah Highway, RINGWOOD, VIC, 3134",Victoria,-37.812601,145.234771,Education/training Business Or Centre: Privately Operated Registered Training Organisation,FALSE,TRUE,FALSE,FALSE,TRUE,FALSE,FALSE,FALSE
2047,Canning College,TRUE,Current,Australian Skills Quality Authority,National Vocational Education and Training Regulator Act 2011,"41 Marquis St, BENTLEY, WA, 6102",Western Australia,-32.0089,115.89973,School - Government,FALSE,FALSE,FALSE,FALSE,TRUE,FALSE,FALSE,FALSE
2068,Murray House Resource Centre Inc,TRUE,Current,Western Australian Training Accreditation Council (WA TAC),Section 27(1) of the Vocational Education and Training Act WA 1996,"14 James Street, PINJARRA, WA, 6208",Western Australia,-32.62744,115.87334,Education/training Business Or Centre: Privately Operated Registered Training Organisation,FALSE,FALSE,FALSE,FALSE,TRUE,FALSE,FALSE,FALSE
2083,Indian Ocean Group Training Association Incorporated,TRUE,Current,Australian Skills Quality Authority,National Vocational Education and Training Regulator Act 2011,"1 Lister Pl, CHRISTMAS ISLAND, WA, 6798",Western Australia,-33.76328,150.83151,Industry Association,FALSE,FALSE,FALSE,FALSE,TRUE,FALSE,FALSE,FALSE
2148,Medilife Pty Ltd,TRUE,Current,Australian Skills Quality Authority,National Vocational Education and Training Regulator Act 2011,"Suite 402 11-15 Deane St, BURWOOD, NSW, 2134",New South Wales,-33.87677,151.10482,Education/training Business Or Centre: Privately Operated Registered Training Organisation,TRUE,TRUE,TRUE,TRUE,TRUE,TRUE,TRUE,TRUE
2194,Capital Careers Pty Ltd,TRUE,Current,Australian Skills Quality Authority,National Vocational Education and Training Regulator Act 2011,"Level 3 The Belconnen Churches Centre, Benjamin Way, Belconnen, ACT, 2617",Australian Capital Territory,-35.24203,149.06761,Education/training Business Or Centre: Privately Operated Registered Training Organisation,TRUE,TRUE,TRUE,TRUE,TRUE,TRUE,TRUE,TRUE
2207,Hurstville Enterprise Association for People Services Inc,TRUE,Current,Australian Skills Quality Authority,National Vocational Education and Training Regulator Act 2011,"2 Rose St, HURSTVILLE, NSW, 2220",New South Wales,-33.96688,151.10532,Community Based Adult Education Provider,TRUE,TRUE,TRUE,TRUE,TRUE,TRUE,TRUE,TRUE
2292,Tactical Training (Australia) Pty Ltd,TRUE,Current,Australian Skills Quality Authority,National Vocational Education and Training Regulator Act 2011,"Unit 3, 190 Glynburn Road, Tranmere, SA, 5073",South Australia,-34.90368,138.65788,Education/training Business Or Centre: Privately Operated Registered Training Organisation,TRUE,TRUE,TRUE,TRUE,TRUE,TRUE,TRUE,TRUE
2293,The MTA Group Training Scheme Inc,TRUE,Current,Australian Skills Quality Authority,National Vocational Education and Training Regulator Act 2011,"3 Frederick Road, Royal Park, SA, 5014",South Australia,-34.86091,138.50222,Industry Association,TRUE,TRUE,TRUE,TRUE,TRUE,TRUE,TRUE,TRUE
2316,Media Make Up Academy & Agency Pty Ltd,TRUE,Current,Australian Skills Quality Authority,National Vocational Education and Training Regulator Act 2011,"14-38 Rundle Mall, ADELAIDE, SA, 5000",South Australia,-34.92226,138.6006,Education/training Business Or Centre: Privately Operated Registered Training Organisation,TRUE,TRUE,TRUE,TRUE,TRUE,TRUE,TRUE,TRUE
2317,Group Training South West (Inc),TRUE,Current,Western Australian Training Accreditation Council (WA TAC),Section 27(1) of the Vocational Education and Training Act WA 1996,"26 Zoe Street, BUNBURY, WA, 6230",Western Australia,-33.33091,115.64081,Education/training Business Or Centre: Privately Operated Registered Training Organisation,FALSE,FALSE,FALSE,FALSE,TRUE,FALSE,FALSE,FALSE
2353,ASC Training & Development Pty Ltd,TRUE,Current,Australian Skills Quality Authority,National Vocational Education and Training Regulator Act 2011,"Level 2, 185 Victoria Square, ADELAIDE, SA, 5000",South Australia,-34.92742,138.59888,Education/training Business Or Centre: Privately Operated Registered Training Organisation,TRUE,TRUE,TRUE,TRUE,TRUE,TRUE,TRUE,TRUE
2370,Tauondi Aboriginal Corporation,TRUE,Current,Australian Skills Quality Authority,National Vocational Education and Training Regulator Act 2011,"1 Lipson Street, Port Adelaide, SA, 5015",South Australia,-34.85131,138.51083,Community Based Adult Education Provider,FALSE,FALSE,TRUE,TRUE,FALSE,FALSE,FALSE,FALSE
2394,Electrotechnology Training Institute Limited,TRUE,Current,Australian Skills Quality Authority,National Vocational Education and Training Regulator Act 2011,"20 Injune Way, Joondalup, WA, 6027",Western Australia,-31.75639,115.76851,Education/training Business Or Centre: Privately Operated Registered Training Organisation,TRUE,TRUE,TRUE,TRUE,TRUE,TRUE,TRUE,TRUE
2401,Skills Strategies International Pty Ltd,TRUE,Current,Australian Skills Quality Authority,National Vocational Education and Training Regulator Act 2011,"5/199 Balcatta Road, Balcatta, WA, 6021",Western Australia,-31.86032,115.81396,Education/training Business Or Centre: Privately Operated Registered Training Organisation,TRUE,TRUE,TRUE,TRUE,TRUE,TRUE,TRUE,TRUE
2431,Australian Training Management Pty Ltd,TRUE,Current,Australian Skills Quality Authority,National Vocational Education and Training Regulator Act 2011,"52 Harrow St, WEST SWAN, WA, 6055",Western Australia,-31.84517,115.98373,Education/training Business Or Centre: Privately Operated Registered Training Organisation,TRUE,TRUE,TRUE,TRUE,TRUE,TRUE,TRUE,TRUE
2437,Axial Training Pty Ltd,TRUE,Current,Australian Skills Quality Authority,National Vocational Education and Training Regulator Act 2011,"Office 20 2404 Logan Rd, EIGHT MILE PLAINS, QLD, 4113",Queensland,-27.5725,153.09224,Education/training Business Or Centre: Privately Operated Registered Training Organisation,TRUE,TRUE,TRUE,TRUE,TRUE,TRUE,TRUE,TRUE
2441,The Spectrum Organization Association Inc,TRUE,Current,Australian Skills Quality Authority,National Vocational Education and Training Regulator Act 2011,"10 Leanne Crescent, Lawnton, QLD, 4501",Queensland,-27.29118,152.98906,Education/training Business Or Centre: Privately Operated Registered Training Organisation,TRUE,TRUE,TRUE,TRUE,TRUE,TRUE,TRUE,TRUE
2510,M W Training Consultants Pty Ltd as trustee for The Morgan-Williams Family Trust,TRUE,Current,Australian Skills Quality Authority,National Vocational Education and Training Regulator Act 2011,"3 Flinders Lane, SCARBOROUGH, QLD, 4020",Queensland,-27.21264,153.11772,Education/training Business Or Centre: Privately Operated Registered Training Organisation,TRUE,TRUE,TRUE,TRUE,TRUE,TRUE,TRUE,TRUE
2512,DEMENTIA & ALZHEIMER'S AUSTRALIA LTD,TRUE,Current,Australian Skills Quality Authority,National Vocational Education and Training Regulator Act 2011,"155 Oak Street, Parkville, VIC, 3052",Victoria,-37.77875,144.94232,Education/training Business Or Centre: Privately Operated Registered Training Organisation,TRUE,TRUE,TRUE,TRUE,TRUE,TRUE,TRUE,TRUE
2514,PEST Australia Pty Ltd,TRUE,Current,Australian Skills Quality Authority,National Vocational Education and Training Regulator Act 2011,"85 Brown Street, EAST PERTH, WA, 6004",Western Australia,-31.95117,115.87564,Education/training Business Or Centre: Privately Operated Registered Training Organisation,TRUE,TRUE,TRUE,TRUE,TRUE,TRUE,TRUE,TRUE
2522,Petya Pty Ltd as trustee for The Van Leeuwen Family Trust,TRUE,Current,Australian Skills Quality Authority,National Vocational Education and Training Regulator Act 2011,"24 Hall Road, Serpentine, WA, 6125",Western Australia,-32.39946,115.97965,Education/training Business Or Centre: Privately Operated Registered Training Organisation,TRUE,TRUE,TRUE,TRUE,TRUE,TRUE,TRUE,TRUE
2534,ERGT Australia RTO Pty Ltd,TRUE,Current,Australian Skills Quality Authority,National Vocational Education and Training Regulator Act 2011,"7 Compass Road, Jandakot, WA, 6164",Western Australia,-32.08948,115.88098,Education/training Business Or Centre: Privately Operated Registered Training Organisation,TRUE,TRUE,TRUE,TRUE,TRUE,TRUE,TRUE,TRUE
2543,Thompson Human Resources Pty Ltd,TRUE,Current,Australian Skills Quality Authority,National Vocational Education and Training Regulator Act 2011,"Innovation Drive, Technopark, Dowsing Point, TAS, 7010",Tasmania,-42.82377,147.3011,Industry Association,TRUE,TRUE,TRUE,TRUE,TRUE,TRUE,TRUE,TRUE
2551,PARASOL EMT Pty Limited,TRUE,Current,Australian Skills Quality Authority,National Vocational Education and Training Regulator Act 2011,"Unit 5 2 Trevillian Qy, KINGSTON, ACT, 2604",Australian Capital Territory,-35.3115,149.14591,Education/training Business Or Centre: Privately Operated Registered Training Organisation,TRUE,TRUE,TRUE,TRUE,TRUE,TRUE,TRUE,TRUE
2571,Winifred West Schools Ltd,TRUE,Current,Australian Skills Quality Authority,National Vocational Education and Training Regulator Act 2011,"Waverley Parade, Mittagong, NSW, 2575",New South Wales,-34.45518,150.44788,School - Independent,TRUE,FALSE,FALSE,FALSE,FALSE,FALSE,FALSE,FALSE
2646,SGS Australia Pty Ltd,TRUE,Current,Australian Skills Quality Authority,National Vocational Education and Training Regulator Act 2011,"6 Metal Pit Drive, Mayfield, NSW, 2304",New South Wales,-32.88097,151.72463,Education/training Business Or Centre: Privately Operated Registered Training Organisation,TRUE,TRUE,TRUE,TRUE,TRUE,TRUE,TRUE,TRUE
2658,Capital Education Group Ltd,TRUE,Current,Australian Skills Quality Authority,National Vocational Education and Training Regulator Act 2011,"Level 1 28-36 Foveaux St, SURRY HILLS, NSW, 2010",New South Wales,-33.883909,151.210102,Education/training Business Or Centre: Privately Operated Registered Training Organisation,TRUE,TRUE,TRUE,TRUE,TRUE,TRUE,TRUE,TRUE
2762,LifeFlight Australia Limited,TRUE,Current,Australian Skills Quality Authority,National Vocational Education and Training Regulator Act 2011,"32 Edward St, BRISBANE CITY, QLD, 4000",Queensland,-27.47185,153.02997,Education/training Business Or Centre: Privately Operated Registered Training Organisation,TRUE,TRUE,TRUE,TRUE,TRUE,TRUE,TRUE,TRUE
2804,Surf Life Saving Queensland,TRUE,Current,Australian Skills Quality Authority,National Vocational Education and Training Regulator Act 2011,"18 Manning Street, South Brisbane, QLD, 4101",Queensland,-27.47522,153.01436,Industry Association,TRUE,TRUE,TRUE,TRUE,TRUE,TRUE,TRUE,TRUE
2808,Professional Association of Climbing Instructors Pty. Ltd.,TRUE,Current,Australian Skills Quality Authority,National Vocational Education and Training Regulator Act 2011,"53 Cheyne St, PIMLICO, QLD, 4812",Queensland,-19.28877,146.78915,Education/training Business Or Centre: Privately Operated Registered Training Organisation,TRUE,TRUE,TRUE,TRUE,TRUE,TRUE,TRUE,TRUE
2839,Wormald Australia Pty Ltd,TRUE,Current,Australian Skills Quality Authority,National Vocational Education and Training Regulator Act 2011,"Level 9 132 Arthur St, NORTH SYDNEY, NSW, 2060",New South Wales,-33.83853,151.20982,Education/training Business Or Centre: Privately Operated Registered Training Organisation,TRUE,TRUE,TRUE,TRUE,TRUE,TRUE,TRUE,TRUE
2875,Dentos Pty Ltd,TRUE,Current,Australian Skills Quality Authority,National Vocational Education and Training Regulator Act 2011,"Level 1 36 Kortum Drive, BURLEIGH HEADS, QLD, 4220",Queensland,-28.101469,153.43945,Education/training Business Or Centre: Privately Operated Registered Training Organisation,TRUE,TRUE,TRUE,TRUE,TRUE,TRUE,TRUE,TRUE
2881,Adair Registered Training Organisation Pty Ltd,TRUE,Current,Australian Skills Quality Authority,National Vocational Education and Training Regulator Act 2011,"7 Joule Pl, TUGGERAH, NSW, 2259",New South Wales,-33.29911,151.41839,Education/training Business Or Centre: Privately Operated Registered Training Organisation,TRUE,TRUE,TRUE,TRUE,TRUE,TRUE,TRUE,TRUE
2912,Aeropower Pty Ltd,TRUE,Current,Australian Skills Quality Authority,National Vocational Education and Training Regulator Act 2011,"Hangar 32, Redcliffe Aerodrome, Rothwell, QLD, 4022",Queensland,-27.23563,153.07978,Education/training Business Or Centre: Privately Operated Registered Training Organisation,TRUE,TRUE,TRUE,TRUE,TRUE,TRUE,TRUE,TRUE
2913,Life Medicine International Incorporated,TRUE,Current,Australian Skills Quality Authority,National Vocational Education and Training Regulator Act 2011,"20 Hideaway Lane, MURWILLUMBAH, NSW, 2484",New South Wales,-28.33116,153.38185,Community Based Adult Education Provider,TRUE,TRUE,TRUE,TRUE,TRUE,TRUE,TRUE,TRUE
2927,R.F MALING & S.M MALING,TRUE,Current,Australian Skills Quality Authority,National Vocational Education and Training Regulator Act 2011,"6708 Mount Lindesay Highway, Gleneagle, QLD, 4285",Queensland,-27.9531,152.98528,Education/training Business Or Centre: Privately Operated Registered Training Organisation,TRUE,TRUE,TRUE,TRUE,TRUE,TRUE,TRUE,TRUE
2929,Ladtan Pty Limited,TRUE,Current,Australian Skills Quality Authority,National Vocational Education and Training Regulator Act 2011,"229 Wights Mountain Road, Samford, QLD, 4520",Queensland,-27.38162,152.86884,Education/training Business Or Centre: Privately Operated Registered Training Organisation,TRUE,TRUE,TRUE,TRUE,TRUE,TRUE,TRUE,TRUE
2942,Hope of the Gold Coast Ltd,TRUE,Current,Australian Skills Quality Authority,National Vocational Education and Training Regulator Act 2011,"4/175 Varsity Pde, VARSITY LAKES, QLD, 4227",Queensland,-28.08,153.41152,Education/training Business Or Centre: Privately Operated Registered Training Organisation,TRUE,TRUE,TRUE,TRUE,TRUE,TRUE,TRUE,TRUE
2962,PISTOL SHOOTING QUEENSLAND LTD,TRUE,Current,Australian Skills Quality Authority,National Vocational Education and Training Regulator Act 2011,"1485 Old Cleveland Road, Belmont, QLD, 4153",Queensland,-27.50562,153.13473,Education/training Business Or Centre: Privately Operated Registered Training Organisation,FALSE,FALSE,TRUE,FALSE,FALSE,FALSE,FALSE,FALSE
3044,Gordon Institute of TAFE,TRUE,Current,Australian Skills Quality Authority,National Vocational Education and Training Regulator Act 2011,"2 Fenwick St, GEELONG, VIC, 3220",Victoria,-38.15366,144.35289,"Technical And Further Education Institute, Skills Institute Or Polytechnic",TRUE,TRUE,TRUE,TRUE,TRUE,TRUE,TRUE,TRUE
3045,William Angliss Institute of TAFE,TRUE,Current,Australian Skills Quality Authority,National Vocational Education and Training Regulator Act 2011,"555 La Trobe St, Melbourne, VIC, 3000",Victoria,-37.81295,144.95297,"Technical And Further Education Institute, Skills Institute Or Polytechnic",TRUE,TRUE,TRUE,TRUE,TRUE,TRUE,TRUE,TRUE
3046,Royal Melbourne Institute of Technology,TRUE,Current,Australian Skills Quality Authority,National Vocational Education and Training Regulator Act 2011,"124 La Trobe St, MELBOURNE, VIC, 3000",Victoria,-37.80915,144.96458,University - Government,TRUE,TRUE,TRUE,TRUE,TRUE,TRUE,TRUE,TRUE
3059,Swinburne University of Technology,TRUE,Current,Australian Skills Quality Authority,National Vocational Education and Training Regulator Act 2011,"John Street, Hawthorn, VIC, 3122",Victoria,-37.82212,145.03897,University - Government,TRUE,TRUE,TRUE,TRUE,TRUE,TRUE,TRUE,TRUE
3067,Fire Rescue Victoria,TRUE,Current,Victorian Registration and Qualifications Authority,"Section 4.3.16	of the Education and Training Reform Act VIC 2006","284 - 290 Hume Highway, CRAIGIEBURN, VIC, 3064",Victoria,-37.61773,144.94779,Industry Association,FALSE,TRUE,FALSE,FALSE,FALSE,FALSE,FALSE,FALSE
3075,Melbourne Polytechnic,TRUE,Current,Australian Skills Quality Authority,National Vocational Education and Training Regulator Act 2011,"77 - 91 St Georges Rd, Preston, VIC, 3072",Victoria,-37.742,144.99819,"Technical And Further Education Institute, Skills Institute Or Polytechnic",TRUE,TRUE,TRUE,TRUE,TRUE,TRUE,TRUE,TRUE
3077,Bendigo Kangan Institute,TRUE,Current,Australian Skills Quality Authority,National Vocational Education and Training Regulator Act 2011,"59-69 Pearcedale Pde, BROADMEADOWS, VIC, 3047",Victoria,-37.67815,144.91863,"Technical And Further Education Institute, Skills Institute Or Polytechnic",TRUE,TRUE,TRUE,TRUE,TRUE,TRUE,TRUE,TRUE
3094,Goulburn Ovens Institute of TAFE,TRUE,Current,Australian Skills Quality Authority,National Vocational Education and Training Regulator Act 2011,"Fryers St, Shepparton, VIC, 3630",Victoria,-36.37959,145.40456,"Technical And Further Education Institute, Skills Institute Or Polytechnic",TRUE,TRUE,TRUE,TRUE,TRUE,TRUE,TRUE,TRUE
3097,Wodonga Institute of TAFE,TRUE,Current,Australian Skills Quality Authority,National Vocational Education and Training Regulator Act 2011,"PO Box 963, Wodonga, VIC, 3689",Victoria,-36.12443,146.88726,"Technical And Further Education Institute, Skills Institute Or Polytechnic",TRUE,TRUE,TRUE,TRUE,TRUE,TRUE,TRUE,TRUE
3113,Victoria University,TRUE,Current,Australian Skills Quality Authority,National Vocational Education and Training Regulator Act 2011,"Footscray Park Campus Ballarat Rd, Footscray, VIC, 3011",Victoria,-37.79525,144.90838,University - Government,TRUE,TRUE,TRUE,TRUE,TRUE,TRUE,TRUE,TRUE
3120,South West Institute of TAFE,TRUE,Current,Australian Skills Quality Authority,National Vocational Education and Training Regulator Act 2011,"Timor St, Warrnambool, VIC, 3280",Victoria,-38.38436,142.48,"Technical And Further Education Institute, Skills Institute Or Polytechnic",TRUE,TRUE,TRUE,TRUE,TRUE,TRUE,TRUE,TRUE
3132,The Australian Ballet School,TRUE,Current,Australian Skills Quality Authority,National Vocational Education and Training Regulator Act 2011,"2 Kavanagh Street, Southbank, VIC, 3006",Victoria,-37.8218,144.96759,Education/training Business Or Centre: Privately Operated Registered Training Organisation,TRUE,TRUE,TRUE,TRUE,TRUE,TRUE,TRUE,TRUE
3139,Are There Productions Pty Ltd,TRUE,Current,Victorian Registration and Qualifications Authority,"Section 4.3.16	of the Education and Training Reform Act VIC 2006","7 Macquarie Pl, BORONIA, VIC, 3155",Victoria,-37.83637,145.2894,Enterprise - Non-Government,FALSE,TRUE,FALSE,FALSE,FALSE,FALSE,FALSE,FALSE
3397,Learning Partners Pty Ltd,TRUE,Current,Australian Skills Quality Authority,National Vocational Education and Training Regulator Act 2011,"26 Elizabeth St, LAUNCESTON, TAS, 7250",Tasmania,-41.438911,147.141811,Education/training Business Or Centre: Privately Operated Registered Training Organisation,TRUE,TRUE,TRUE,TRUE,TRUE,TRUE,TRUE,TRUE
3399,ABC LICENCE TRAINING PTY LTD,TRUE,Current,Australian Skills Quality Authority,National Vocational Education and Training Regulator Act 2011,"Unit 3 67-69 Palmerston Cres, SOUTH MELBOURNE, VIC, 3205",Victoria,-37.835105,144.969308,Education/training Business Or Centre: Privately Operated Registered Training Organisation,TRUE,TRUE,TRUE,TRUE,TRUE,TRUE,TRUE,TRUE
3492,EQUALS International (Aust) Pty Ltd,TRUE,Current,Australian Skills Quality Authority,National Vocational Education and Training Regulator Act 2011,"81 Currie Street, Adelaide, SA, 5000",South Australia,-34.92485,138.59656,Education/training Business Or Centre: Privately Operated Registered Training Organisation,TRUE,TRUE,TRUE,TRUE,TRUE,TRUE,TRUE,TRUE
3558,Apprentices-Trainees-Employment Ltd,TRUE,Current,Australian Skills Quality Authority,National Vocational Education and Training Regulator Act 2011,"Suite 3, Level 1, 107-117 High Street, WODONGA, VIC, 3690",Victoria,-36.11252,146.89308,Education/training Business Or Centre: Privately Operated Registered Training Organisation,TRUE,TRUE,FALSE,FALSE,FALSE,FALSE,FALSE,FALSE
3562,Arbortrim Australia Pty Ltd,TRUE,Current,Australian Skills Quality Authority,National Vocational Education and Training Regulator Act 2011,"5-11 David Lee Rd, HALLAM, VIC, 3803",Victoria,-38.01275,145.26645,Education/training Business Or Centre: Privately Operated Registered Training Organisation,TRUE,TRUE,TRUE,TRUE,TRUE,TRUE,TRUE,TRUE
3569,Aust-Link Pty Ltd,TRUE,Current,Victorian Registration and Qualifications Authority,"Section 4.3.16	of the Education and Training Reform Act VIC 2006","3325 Walnut Avenue, MILDURA, VIC, 3500",Victoria,-34.20868,142.124,Industry Association,FALSE,TRUE,FALSE,FALSE,FALSE,FALSE,FALSE,FALSE
3570,The GEO Group Australia Pty Ltd,TRUE,Current,Australian Skills Quality Authority,National Vocational Education and Training Regulator Act 2011,"Level 18
44 Market St, Sydney, NSW, 2000",New South Wales,-33.8705,151.20586,Enterprise - Non-Government,TRUE,TRUE,TRUE,TRUE,TRUE,TRUE,TRUE,TRUE
3586,APL Group Pty Ltd,TRUE,Current,Australian Skills Quality Authority,National Vocational Education and Training Regulator Act 2011,"20 Viewtech Place, Rowville, VIC, 3178",Victoria,-37.93003,145.22206,Education/training Business Or Centre: Privately Operated Registered Training Organisation,TRUE,TRUE,TRUE,TRUE,TRUE,TRUE,TRUE,TRUE
3591,"Australian Industrial Trainers, Assessors & Consultants (AITAC) Pty Ltd",TRUE,Current,Australian Skills Quality Authority,National Vocational Education and Training Regulator Act 2011,"1356 Riddell Rd, RIDDELLS CREEK, VIC, 3431",Victoria,-37.48809,144.680228,Education/training Business Or Centre: Privately Operated Registered Training Organisation,TRUE,TRUE,TRUE,TRUE,TRUE,TRUE,TRUE,TRUE
3596,"Australian and New Zealand Institute of Insurance and Finance, The",TRUE,Current,Australian Skills Quality Authority,National Vocational Education and Training Regulator Act 2011,"Level 18 1 Nicholson St, EAST MELBOURNE, VIC, 3002",Victoria,-37.80898,144.97327,Industry Association,TRUE,TRUE,TRUE,TRUE,TRUE,TRUE,TRUE,TRUE
3600,Australian National Memorial Theatre Ltd,TRUE,Current,Australian Skills Quality Authority,National Vocational Education and Training Regulator Act 2011,"20 Carlisle St, ST KILDA, VIC, 3182",Victoria,-37.86695,144.98086,Education/training Business Or Centre: Privately Operated Registered Training Organisation,FALSE,TRUE,FALSE,FALSE,FALSE,FALSE,FALSE,FALSE
3605,Australian Red Cross Society,TRUE,Current,Australian Skills Quality Authority,National Vocational Education and Training Regulator Act 2011,"637 Flinders St, DOCKLANDS, VIC, 3008",Victoria,-37.821993,144.953018,Education/training Business Or Centre: Privately Operated Registered Training Organisation,TRUE,TRUE,TRUE,TRUE,TRUE,TRUE,TRUE,TRUE
3609,Shiatsu & Oriental Healing Arts Company Pty Ltd,TRUE,Current,Australian Skills Quality Authority,National Vocational Education and Training Regulator Act 2011,"222A Johnston St, COLLINGWOOD, VIC, 3066",Victoria,-37.79962,144.99249,Education/training Business Or Centre: Privately Operated Registered Training Organisation,TRUE,TRUE,TRUE,TRUE,TRUE,TRUE,TRUE,TRUE
3621,BRACE Education Training and Employment Limited,TRUE,Current,Australian Skills Quality Authority,National Vocational Education and Training Regulator Act 2011,"36 Ross Smith Ave, FRANKSTON, VIC, 3199",Victoria,-38.14209,145.12573,Community Based Adult Education Provider,TRUE,TRUE,TRUE,TRUE,TRUE,TRUE,TRUE,TRUE
3652,Workforce Plus Inc,TRUE,Current,Australian Skills Quality Authority,National Vocational Education and Training Regulator Act 2011,"16 Pedder St, DARNUM, VIC, 3822",Victoria,-38.18475,146.00555,Community Based Adult Education Provider,TRUE,TRUE,TRUE,TRUE,TRUE,TRUE,TRUE,TRUE
3671,Carringbush Adult Education Inc,TRUE,Current,Victorian Registration and Qualifications Authority,"Section 4.3.16	of the Education and Training Reform Act VIC 2006","415 Church St, RICHMOND, VIC, 3121",Victoria,-37.82532,144.9982,Community Based Adult Education Provider,FALSE,TRUE,FALSE,FALSE,FALSE,FALSE,FALSE,FALSE
3683,Central Highlands Group Training Inc,TRUE,Current,Victorian Registration and Qualifications Authority,"Section 4.3.16	of the Education and Training Reform Act VIC 2006","25-39 Barkly Street, BALLARAT EAST, VIC, 3350",Victoria,-37.56405,143.86903,Community Based Adult Education Provider,FALSE,TRUE,FALSE,FALSE,FALSE,FALSE,FALSE,FALSE
3687,The Centre of Excellence Pty Ltd,TRUE,Current,Australian Skills Quality Authority,National Vocational Education and Training Regulator Act 2011,"126 Yarra Street, Geelong, VIC, 3220",Victoria,-38.15151,144.36136,Education/training Business Or Centre: Privately Operated Registered Training Organisation,TRUE,TRUE,TRUE,TRUE,TRUE,TRUE,TRUE,TRUE
3688,CONSTRUCTION FORESTRY MARITIME EMPLOYEES UNION - CONSTRUCTION AND GENERAL DIVISION VICTORIA-TASMANIA DIVISIONAL BRANCH,TRUE,Current,Australian Skills Quality Authority,National Vocational Education and Training Regulator Act 2011,"540 Elizabeth St, MELBOURNE, VIC, 3000",Victoria,-37.80551,144.9596,Industry Association,TRUE,TRUE,TRUE,TRUE,TRUE,TRUE,TRUE,TRUE
3696,Centre for Excellence in Child and Family Welfare Inc,TRUE,Current,Australian Skills Quality Authority,National Vocational Education and Training Regulator Act 2011,"5th Floor50 Market St, Melbourne, VIC, 3000",Victoria,-37.81811,144.96085,Industry Association,TRUE,TRUE,TRUE,TRUE,TRUE,TRUE,TRUE,TRUE
3704,Civil Contractors Federation (Victorian Branch),TRUE,Current,Australian Skills Quality Authority,National Vocational Education and Training Regulator Act 2011,"9 Business Park Dr, NOTTING HILL, VIC, 3168",Victoria,-37.90229,145.12976,Industry Association,TRUE,TRUE,TRUE,TRUE,TRUE,TRUE,TRUE,TRUE
3708,Cobram Community House Inc,TRUE,Current,Australian Skills Quality Authority,National Vocational Education and Training Regulator Act 2011,"43-45 Punt Rd, Cobram, VIC, 3644",Victoria,-35.91914,145.6536,Community Based Adult Education Provider,TRUE,TRUE,FALSE,FALSE,FALSE,FALSE,FALSE,FALSE
3720,Bass Coast Adult Learning Inc,TRUE,Current,Victorian Registration and Qualifications Authority,"Section 4.3.16	of the Education and Training Reform Act VIC 2006","239 White Rd, WONTHAGGI, VIC, 3995",Victoria,-38.59008,145.58291,Community Based Adult Education Provider,FALSE,TRUE,FALSE,FALSE,FALSE,FALSE,FALSE,FALSE
3722,Complete Hospitality Training (Vic) Pty Ltd,TRUE,Current,Australian Skills Quality Authority,National Vocational Education and Training Regulator Act 2011,"3rd Floor, 28 Elizabeth St, MELBOURNE, VIC, 3000",Victoria,-37.78818,145.14668,Education/training Business Or Centre: Privately Operated Registered Training Organisation,TRUE,TRUE,TRUE,TRUE,TRUE,TRUE,TRUE,TRUE
3730,Alexandra Community Hub,TRUE,Current,Australian Skills Quality Authority,National Vocational Education and Training Regulator Act 2011,"38A Downey St, Alexandra, VIC, 3714",Victoria,-37.19132,145.71166,Community Based Adult Education Provider,FALSE,TRUE,FALSE,FALSE,FALSE,FALSE,FALSE,FALSE
3732,Indie Education,TRUE,Current,Australian Skills Quality Authority,National Vocational Education and Training Regulator Act 2011,"63 - 67 High Street, Wodonga, VIC, 3690",Victoria,-36.11838,146.88915,School - Independent,TRUE,TRUE,TRUE,TRUE,TRUE,TRUE,FALSE,FALSE
3739,Country Fire Authority Victoria,TRUE,Current,Victorian Registration and Qualifications Authority,"Section 4.3.16	of the Education and Training Reform Act VIC 2006","8 Lakeside Drive, BURWOOD EAST, VIC, 3151",Victoria,-37.85583,145.16429,Enterprise - Government,FALSE,TRUE,FALSE,FALSE,FALSE,FALSE,FALSE,FALSE
3743,Crown Melbourne Limited,TRUE,Current,Australian Skills Quality Authority,National Vocational Education and Training Regulator Act 2011,"Crown College, Level 2, Crown Metropol, Southbank, VIC, 3006",Victoria,-34.19701,142.12715,Enterprise - Non-Government,TRUE,TRUE,TRUE,TRUE,TRUE,TRUE,TRUE,TRUE
3746,Dance Factory Pty. Ltd.,TRUE,Current,Australian Skills Quality Authority,National Vocational Education and Training Regulator Act 2011,"225 Swan St, RICHMOND, VIC, 3121",Victoria,-37.82574,144.99983,Education/training Business Or Centre: Privately Operated Registered Training Organisation,FALSE,TRUE,FALSE,FALSE,FALSE,FALSE,FALSE,FALSE
3752,Deakin University,TRUE,Current,Australian Skills Quality Authority,National Vocational Education and Training Regulator Act 2011,"Level 12 727 Collins St, DOCKLANDS, VIC, 3008",Victoria,-37.8205,144.94996,University - Government,TRUE,TRUE,TRUE,TRUE,TRUE,TRUE,TRUE,TRUE
3755,Comm Unity Plus Services Ltd,TRUE,Current,Victorian Registration and Qualifications Authority,"Section 4.3.16	of the Education and Training Reform Act VIC 2006","Level 1, 90 Taylors Road, KEILOR DOWNS, VIC, 3038",Victoria,-37.72823,144.80491,Community Based Adult Education Provider,FALSE,TRUE,FALSE,FALSE,FALSE,FALSE,FALSE,FALSE
3762,Department of Justice and Community Safety,TRUE,Current,Victorian Registration and Qualifications Authority,"Section 4.3.16	of the Education and Training Reform Act VIC 2006","Level 15, 121 Exhibition Street, MELBOURNE, VIC, 3000",Victoria,-37.81273,144.97056,Enterprise - Government,FALSE,TRUE,FALSE,FALSE,FALSE,FALSE,FALSE,FALSE
3765,"Department of Energy, Environment and Climate Action",TRUE,Current,Victorian Registration and Qualifications Authority,"Section 4.3.16	of the Education and Training Reform Act VIC 2006","Level 13, 8 Nicholson Street, EAST MELBOURNE, VIC, 3002",Victoria,-37.80844,144.97339,Enterprise - Government,FALSE,TRUE,FALSE,FALSE,FALSE,FALSE,FALSE,FALSE
3769,Diamond Valley Learning Centre Inc,TRUE,Current,Victorian Registration and Qualifications Authority,"Section 4.3.16	of the Education and Training Reform Act VIC 2006","Corner Diamond Creek and St Helena Roads, GREENSBOROUGH, VIC, 3088",Victoria,-37.68984,145.11395,Community Based Adult Education Provider,FALSE,TRUE,FALSE,FALSE,FALSE,FALSE,FALSE,FALSE
3771,Djerriwarrh Employment & Education Services Inc,TRUE,Current,Victorian Registration and Qualifications Authority,"Section 4.3.16	of the Education and Training Reform Act VIC 2006","239 Station Rd, MELTON, VIC, 3337",Victoria,-37.68655,144.57793,School - Independent,FALSE,TRUE,FALSE,FALSE,FALSE,FALSE,FALSE,FALSE
3774,Pines Learning Incorporated,TRUE,Current,Australian Skills Quality Authority,National Vocational Education and Training Regulator Act 2011,"1/520 Blackburn Road, Doncaster East, VIC, 3109",Victoria,-37.76072,145.16727,Community Based Adult Education Provider,FALSE,TRUE,FALSE,TRUE,FALSE,FALSE,FALSE,FALSE
3776,Murray Adult Community Education-Swan Hill Inc,TRUE,Current,Victorian Registration and Qualifications Authority,"Section 4.3.16	of the Education and Training Reform Act VIC 2006","429 Campbell St, SWAN HILL, VIC, 3585",Victoria,-35.34865,143.56223,Community Based Adult Education Provider,FALSE,TRUE,FALSE,FALSE,FALSE,FALSE,FALSE,FALSE
3784,Educational Living Pty Ltd,TRUE,Current,Australian Skills Quality Authority,National Vocational Education and Training Regulator Act 2011,"1st Floor
27-33 Wood St, Beaconsfield, VIC, 3807",Victoria,-38.04667,145.3674,Education/training Business Or Centre: Privately Operated Registered Training Organisation,TRUE,TRUE,TRUE,TRUE,TRUE,TRUE,TRUE,TRUE
3789,Australian Education Group Pty Ltd,TRUE,Current,Australian Skills Quality Authority,National Vocational Education and Training Regulator Act 2011,"Elly Lukas House, 345 Flinders Lane, Melbourne, VIC, 3000",Victoria,-37.8177,144.96292,Education/training Business Or Centre: Privately Operated Registered Training Organisation,FALSE,TRUE,FALSE,FALSE,FALSE,FALSE,FALSE,FALSE
3811,Fitzroy Learning Network Inc,TRUE,Current,Victorian Registration and Qualifications Authority,"Section 4.3.16	of the Education and Training Reform Act VIC 2006","198 Napier St, FITZROY, VIC, 3065",Victoria,-37.80213,144.98027,Community Based Adult Education Provider,FALSE,TRUE,FALSE,FALSE,FALSE,FALSE,FALSE,FALSE
3818,Olympic Neighbourhood House Incorporated,TRUE,Current,Victorian Registration and Qualifications Authority,Section 4.3.16 of the Education and Training Reform Act VIC 2006,"155 Oriel Road, HEIDELBERG WEST, VIC, 3081",Victoria,-37.748684,145.041314,Community Based Adult Education Provider,FALSE,TRUE,FALSE,FALSE,FALSE,FALSE,FALSE,FALSE
3821,National Food Institute Pty Ltd,TRUE,Current,Australian Skills Quality Authority,National Vocational Education and Training Regulator Act 2011,"126 Ayr St, DONCASTER, VIC, 3108",Victoria,-37.7768,145.10378,Education/training Business Or Centre: Privately Operated Registered Training Organisation,TRUE,TRUE,TRUE,TRUE,TRUE,TRUE,TRUE,TRUE
3829,Gippsland Group Training Ltd,TRUE,Current,Australian Skills Quality Authority,National Vocational Education and Training Regulator Act 2011,"192-198 High St, NORTHCOTE, VIC, 3070",Victoria,-37.77473,144.99808,Industry Association,TRUE,TRUE,TRUE,TRUE,TRUE,TRUE,TRUE,TRUE
3831,Glenroy Neighbourhood Learning Centre Inc,TRUE,Current,Victorian Registration and Qualifications Authority,"Section 4.3.16	of the Education and Training Reform Act VIC 2006","5B Cromwell Street, GLENROY, VIC, 3046",Victoria,-37.70395,144.92198,Community Based Adult Education Provider,FALSE,TRUE,FALSE,FALSE,FALSE,FALSE,FALSE,FALSE
3839,Gray Management Systems Pty Ltd,TRUE,Current,Australian Skills Quality Authority,National Vocational Education and Training Regulator Act 2011,"Unit 5 11 Tura Beach Dr, TURA BEACH, NSW, 2548",New South Wales,-36.8636,149.91595,Education/training Business Or Centre: Privately Operated Registered Training Organisation,TRUE,TRUE,TRUE,TRUE,TRUE,TRUE,TRUE,TRUE
3890,Resurrection Catholic Church Keysborough,TRUE,Current,Victorian Registration and Qualifications Authority,"Section 4.3.16	of the Education and Training Reform Act VIC 2006","402 Corrigan Rd, KEYSBOROUGH, VIC, 3173",Victoria,-37.98982,145.16344,Community Based Adult Education Provider,FALSE,TRUE,FALSE,FALSE,FALSE,FALSE,FALSE,FALSE
3899,La Trobe University,TRUE,Current,Australian Skills Quality Authority,National Vocational Education and Training Regulator Act 2011,"Kingsbury Drive and Waterdale Road, Bundoora, VIC, 3083",Victoria,-37.72684,145.05076,University - Government,FALSE,TRUE,FALSE,FALSE,FALSE,FALSE,FALSE,FALSE
3900,Lady Gowrie Child Centre Melbourne Inc,TRUE,Current,Australian Skills Quality Authority,National Vocational Education and Training Regulator Act 2011,"Cnr Canning & Newry Streets, North Carlton, VIC, 3054",Victoria,-37.78632,144.97474,Community Based Adult Education Provider,FALSE,TRUE,FALSE,FALSE,FALSE,FALSE,FALSE,FALSE
3908,Leadership Management Australia Pty Ltd,TRUE,Current,Australian Skills Quality Authority,National Vocational Education and Training Regulator Act 2011,"1/6 University Pl, CLAYTON, VIC, 3168",Victoria,-37.91192,145.1465,Education/training Business Or Centre: Privately Operated Registered Training Organisation,TRUE,TRUE,TRUE,TRUE,TRUE,TRUE,TRUE,TRUE
3910,Smart Connection Company Pty Ltd,TRUE,Current,Australian Skills Quality Authority,National Vocational Education and Training Regulator Act 2011,"Level 1 239 Church St, PARRAMATTA, NSW, 2150",New South Wales,-33.8169,151.00344,Education/training Business Or Centre: Privately Operated Registered Training Organisation,TRUE,TRUE,TRUE,TRUE,TRUE,TRUE,TRUE,TRUE
3911,Linda Wyse and Associates Pty Ltd,TRUE,Current,Victorian Registration and Qualifications Authority,"Section 4.3.16	of the Education and Training Reform Act VIC 2006","Suite 2, 22 Council Street, HAWTHORN, VIC, 3123",Victoria,-37.83038,145.05397,Education/training Business Or Centre: Privately Operated Registered Training Organisation,FALSE,TRUE,FALSE,FALSE,FALSE,FALSE,FALSE,FALSE
3927,The Management Edge Pty Ltd,TRUE,Current,Australian Skills Quality Authority,National Vocational Education and Training Regulator Act 2011,"Unit 103 301 Burwood Hwy, BURWOOD, VIC, 3125",Victoria,-37.850476,145.121032,Education/training Business Or Centre: Privately Operated Registered Training Organisation,TRUE,TRUE,TRUE,TRUE,TRUE,TRUE,TRUE,TRUE
3930,Milneworth Pty Ltd,TRUE,Current,Australian Skills Quality Authority,National Vocational Education and Training Regulator Act 2011,"401 Canterbury Road, Surrey Hills, VIC, 3127",Victoria,-37.82476,145.08926,Education/training Business Or Centre: Privately Operated Registered Training Organisation,TRUE,TRUE,TRUE,TRUE,TRUE,TRUE,TRUE,TRUE
3935,"Master Builders Association of Victoria, The",TRUE,Current,Australian Skills Quality Authority,National Vocational Education and Training Regulator Act 2011,"332 Albert Street, East Melbourne, VIC, 3002",Victoria,-37.80982,144.98,Industry Association,TRUE,TRUE,TRUE,TRUE,TRUE,TRUE,TRUE,TRUE
3937,Master Plumbers & Mechanical Services Association of Australia,TRUE,Current,Australian Skills Quality Authority,National Vocational Education and Training Regulator Act 2011,"15/306 Albert Street, Brunswick, VIC, 3056",Victoria,-37.76868,144.95898,Industry Association,FALSE,TRUE,FALSE,FALSE,FALSE,FALSE,FALSE,FALSE
3938,Mayfield Education Inc,TRUE,Current,Australian Skills Quality Authority,National Vocational Education and Training Regulator Act 2011,"2 Camberwell Road, Hawthorn East, VIC, 3123",Victoria,-37.82448,145.04843,Education/training Business Or Centre: Privately Operated Registered Training Organisation,TRUE,TRUE,TRUE,TRUE,TRUE,TRUE,TRUE,TRUE
3940,Meadow Heights Learning Shop Inc,TRUE,Current,Victorian Registration and Qualifications Authority,"Section 4.3.16	of the Education and Training Reform Act VIC 2006","3-13 Hudson Circuit, MEADOW HEIGHTS, VIC, 3048",Victoria,-37.65215,144.92122,Community Based Adult Education Provider,FALSE,TRUE,FALSE,FALSE,FALSE,FALSE,FALSE,FALSE
3948,Melbourne Rudolf Steiner Seminar Limited,TRUE,Current,Australian Skills Quality Authority,National Vocational Education and Training Regulator Act 2011,"37A Wellington Park Drive, Warranwood, VIC, 3134",Victoria,-37.77618,145.24451,Education/training Business Or Centre: Privately Operated Registered Training Organisation,FALSE,TRUE,FALSE,FALSE,FALSE,FALSE,FALSE,FALSE
3957,MADEC Australia,TRUE,Current,Australian Skills Quality Authority,National Vocational Education and Training Regulator Act 2011,"MADEC Wesley Centre

126-130 Deakin Avenue, Mildura, VIC, 3500",Victoria,-34.18856,142.15905,Community Based Adult Education Provider,TRUE,TRUE,TRUE,TRUE,TRUE,TRUE,TRUE,TRUE
3969,Mountain District Women's Co-operative Ltd,TRUE,Current,Victorian Registration and Qualifications Authority,"Section 4.3.16	of the Education and Training Reform Act VIC 2006","15 The Avenue, FERNTREE GULLY, VIC, 3156",Victoria,-37.88327,145.29321,Community Based Adult Education Provider,FALSE,TRUE,FALSE,FALSE,FALSE,FALSE,FALSE,FALSE
3974,Murray Mallee Training Company Ltd,TRUE,Current,Australian Skills Quality Authority,National Vocational Education and Training Regulator Act 2011,"335-339 Campbell St, Swan Hill, VIC, 3585",Victoria,-35.34371,143.56114,Education/training Business Or Centre: Privately Operated Registered Training Organisation,TRUE,TRUE,TRUE,TRUE,TRUE,TRUE,TRUE,TRUE
3977,Foundation Learning Centre Inc,TRUE,Current,Victorian Registration and Qualifications Authority,"Section 4.3.16	of the Education and Training Reform Act VIC 2006","1 Malcolm Crt, NARRE WARREN, VIC, 3805",Victoria,-38.02635,145.30515,School - Independent,FALSE,TRUE,FALSE,FALSE,FALSE,FALSE,FALSE,FALSE
3981,Kyane Pty Ltd as trustee for The Kym Eden Family Trust,TRUE,Current,Australian Skills Quality Authority,National Vocational Education and Training Regulator Act 2011,"11/328 Reserve Road, CHELTENHAM, VIC, 3192",Victoria,-37.96151,145.03792,Education/training Business Or Centre: Privately Operated Registered Training Organisation,TRUE,TRUE,TRUE,TRUE,TRUE,TRUE,TRUE,TRUE
4001,OPTEC Pty Ltd,TRUE,Current,Australian Skills Quality Authority,National Vocational Education and Training Regulator Act 2011,"2 Church St, Morwell, VIC, 3840",Victoria,-38.23635,146.39911,Industry Association,TRUE,TRUE,TRUE,TRUE,TRUE,TRUE,TRUE,TRUE
4008,Park Orchards Community House & Learning Centre Inc,TRUE,Current,Australian Skills Quality Authority,National Vocational Education and Training Regulator Act 2011,"572 Park Rd, PARK ORCHARDS, VIC, 3114",Victoria,-37.77824,145.21491,Community Based Adult Education Provider,TRUE,TRUE,FALSE,TRUE,FALSE,FALSE,FALSE,FALSE
4011,Pinewood River Pty. Ltd.,TRUE,Current,Australian Skills Quality Authority,National Vocational Education and Training Regulator Act 2011,"24-32 Manning St, TAREE, NSW, 2430",New South Wales,-31.912071,152.460516,Education/training Business Or Centre: Privately Operated Registered Training Organisation,TRUE,TRUE,TRUE,TRUE,TRUE,TRUE,TRUE,TRUE
4016,Peninsula Training and Employment Program Inc,TRUE,Current,Australian Skills Quality Authority,National Vocational Education and Training Regulator Act 2011,"6 Henry Wilson Dr, ROSEBUD, VIC, 3939",Victoria,-38.38325,144.88693,Community Based Adult Education Provider,FALSE,TRUE,TRUE,FALSE,FALSE,FALSE,FALSE,FALSE
4036,Prace Inc.,TRUE,Current,Victorian Registration and Qualifications Authority,"Section 4.3.16	of the Education and Training Reform Act VIC 2006","35 Sturdee Street, RESERVOIR, VIC, 3073",Victoria,-37.69862,145.00924,School - Independent,FALSE,TRUE,FALSE,FALSE,FALSE,FALSE,FALSE,FALSE
4041,Rabbinical College of Australia and New Zealand,TRUE,Current,Australian Skills Quality Authority,National Vocational Education and Training Regulator Act 2011,"67 Alexandra St, East St Kilda, VIC, 3183",Victoria,-37.86368,145.00307,Education/training Business Or Centre: Privately Operated Registered Training Organisation,FALSE,TRUE,FALSE,FALSE,FALSE,FALSE,FALSE,FALSE
4042,The Real Estate Institute of Victoria Ltd,TRUE,Current,Australian Skills Quality Authority,National Vocational Education and Training Regulator Act 2011,"617 Victoria St, ABBOTSFORD, VIC, 3067",Victoria,-37.811123,145.007942,Industry Association,FALSE,TRUE,FALSE,FALSE,FALSE,FALSE,FALSE,FALSE
4049,Australian Retailers Association,TRUE,Current,Australian Skills Quality Authority,National Vocational Education and Training Regulator Act 2011,"Level 18 1 Nicholson St, EAST MELBOURNE, VIC, 3002",Victoria,-37.80897,144.97327,Industry Association,TRUE,TRUE,TRUE,TRUE,TRUE,TRUE,TRUE,TRUE
4098,Springvale Neighbourhood House Inc,TRUE,Current,Victorian Registration and Qualifications Authority,"Section 4.3.16	of the Education and Training Reform Act VIC 2006","1-3 Lightwood Road, SPRINGVALE, VIC, 3171",Victoria,-37.9502,145.15363,Community Based Adult Education Provider,FALSE,TRUE,FALSE,FALSE,FALSE,FALSE,FALSE,FALSE
4112,Acknowledge Education Pty Ltd,TRUE,Current,Australian Skills Quality Authority,National Vocational Education and Training Regulator Act 2011,"166-172 Exhibition St, MELBOURNE, VIC, 3000",Victoria,-37.81165,144.97046,Education/training Business Or Centre: Privately Operated Registered Training Organisation,TRUE,TRUE,TRUE,TRUE,TRUE,TRUE,TRUE,TRUE
4132,TFIA Business Services Pty Ltd,TRUE,Current,Australian Skills Quality Authority,National Vocational Education and Training Regulator Act 2011,"68 Victor Cres, NARRE WARREN, VIC, 3805",Victoria,-38.02378,145.31345,Industry Association,TRUE,TRUE,TRUE,TRUE,TRUE,TRUE,TRUE,TRUE
4137,Tintern Grammar,TRUE,Current,Victorian Registration and Qualifications Authority,"Section 4.3.16	of the Education and Training Reform Act VIC 2006","90 Alexandra Road, RINGWOOD EAST, VIC, 3135",Victoria,-37.81611,145.25649,School - Independent,FALSE,TRUE,FALSE,FALSE,FALSE,FALSE,FALSE,FALSE
4141,ACTU Education Inc.,TRUE,Current,Australian Skills Quality Authority,National Vocational Education and Training Regulator Act 2011,"4th Floor
365 Queen St, Melbourne, VIC, 3000",Victoria,-38.14243,145.13328,Industry Association,TRUE,TRUE,TRUE,TRUE,TRUE,TRUE,TRUE,TRUE
4157,Victoria State Emergency Service Authority,TRUE,Current,Victorian Registration and Qualifications Authority,"Section 4.3.16	of the Education and Training Reform Act VIC 2006","168 Sturt St, SOUTHBANK, VIC, 3006",Victoria,-37.82575,144.9664,Enterprise - Government,FALSE,TRUE,FALSE,FALSE,FALSE,FALSE,FALSE,FALSE
4166,Victorian Chamber of Commerce and Industry Incorporated,TRUE,Current,Australian Skills Quality Authority,National Vocational Education and Training Regulator Act 2011,"Level 3, 150 Collins Street, MELBOURNE, VIC, 3000",Victoria,-37.81412,144.96842,Industry Association,TRUE,TRUE,TRUE,TRUE,TRUE,TRUE,TRUE,TRUE
4168,Timber Training Creswick Ltd,TRUE,Current,Australian Skills Quality Authority,National Vocational Education and Training Regulator Act 2011,"Moore St, Creswick, VIC, 3363",Victoria,-37.42283,143.89674,Industry Association,TRUE,TRUE,TRUE,TRUE,TRUE,TRUE,TRUE,TRUE
4172,The Centre For Continuing Education Inc,TRUE,Current,Victorian Registration and Qualifications Authority,"Section 4.3.16	of the Education and Training Reform Act VIC 2006","17 Chisholm Street, WANGARATTA, VIC, 3677",Victoria,-36.35599,146.32862,Community Based Adult Education Provider,FALSE,TRUE,FALSE,FALSE,FALSE,FALSE,FALSE,FALSE
4179,Wyndham Community and Education Centre Inc,TRUE,Current,Victorian Registration and Qualifications Authority,"Section 4.3.16	of the Education and Training Reform Act VIC 2006","20 Synnot Street, WERRIBEE, VIC, 3030",Victoria,-37.90162,144.66296,School - Independent,FALSE,TRUE,FALSE,FALSE,FALSE,FALSE,FALSE,FALSE
4181,Community College Gippsland Ltd,TRUE,Current,Victorian Registration and Qualifications Authority,Section 4.3.16 of the Education and Training Reform Act VIC 2006,"71 Korumburra-Warragul Road, WARRAGUL, VIC, 3820",Victoria,-38.17956,145.92847,School - Independent,FALSE,TRUE,FALSE,FALSE,FALSE,FALSE,FALSE,FALSE
4185,Opendoor Ltd,TRUE,Current,Victorian Registration and Qualifications Authority,"Section 4.3.16	of the Education and Training Reform Act VIC 2006","Unit 4, 2B Parker Street, FOOTSCRAY, VIC, 3011",Victoria,-37.80677,144.90293,Community Based Adult Education Provider,FALSE,TRUE,FALSE,FALSE,FALSE,FALSE,FALSE,FALSE
4192,Skillinvest Limited,TRUE,Current,Australian Skills Quality Authority,National Vocational Education and Training Regulator Act 2011,"15 -17 Dimboola Road, Horsham, VIC, 3400",Victoria,-36.70979,142.19479,Education/training Business Or Centre: Privately Operated Registered Training Organisation,TRUE,TRUE,TRUE,TRUE,TRUE,TRUE,TRUE,TRUE
4198,Rural Industries Skill Training Centre Incorporated,TRUE,Current,Australian Skills Quality Authority,National Vocational Education and Training Regulator Act 2011,"915 Mount Napier Rd, HAMILTON, VIC, 3300",Victoria,-37.81946,142.06225,Industry Association,TRUE,TRUE,TRUE,TRUE,TRUE,TRUE,TRUE,TRUE
4207,Yarraville Community Centre Inc.,TRUE,Current,Victorian Registration and Qualifications Authority,"Section 4.3.16	of the Education and Training Reform Act VIC 2006","59 Francis St, YARRAVILLE, VIC, 3013",Victoria,-37.82173,144.89378,Community Based Adult Education Provider,FALSE,TRUE,FALSE,FALSE,FALSE,FALSE,FALSE,FALSE
4256,Corporate Training Solutions Pty Ltd,TRUE,Current,Australian Skills Quality Authority,National Vocational Education and Training Regulator Act 2011,"22 Collie Ct, WATTLE GROVE, NSW, 2173",New South Wales,-33.944075,150.931919,Education/training Business Or Centre: Privately Operated Registered Training Organisation,TRUE,TRUE,TRUE,TRUE,TRUE,TRUE,TRUE,TRUE
4282,Australian Forensic Services Pty Ltd,TRUE,Current,Australian Skills Quality Authority,National Vocational Education and Training Regulator Act 2011,"21 Wollongong St, FYSHWICK, ACT, 2609",Australian Capital Territory,-35.32648,149.17829,Education/training Business Or Centre: Privately Operated Registered Training Organisation,TRUE,TRUE,TRUE,TRUE,TRUE,TRUE,TRUE,TRUE
4327,Unions WA Incorporated,TRUE,Current,Western Australian Training Accreditation Council (WA TAC),Section 27(1) of the Vocational Education and Training Act WA 1996,"Level 4, 445 Hay Street, PERTH, WA, 6000",Western Australia,-31.9566,115.8652,Industry Association,FALSE,FALSE,FALSE,FALSE,TRUE,FALSE,FALSE,FALSE
4346,Back to Basics Business Training Pty Ltd,TRUE,Current,Australian Skills Quality Authority,National Vocational Education and Training Regulator Act 2011,"11 Lindeman Street, ASHTONFIELD, NSW, 2323",New South Wales,-32.77029,151.60191,Education/training Business Or Centre: Privately Operated Registered Training Organisation,TRUE,TRUE,TRUE,TRUE,TRUE,TRUE,TRUE,TRUE
4386,Kimberley Aboriginal Medical Services Ltd,TRUE,Current,Western Australian Training Accreditation Council (WA TAC),Section 27(1) of the Vocational Education and Training Act WA 1996,"12 Napier Terrace, BROOME, WA, 6725",Western Australia,-17.95451,122.24041,Community Based Adult Education Provider,FALSE,FALSE,FALSE,FALSE,TRUE,FALSE,FALSE,FALSE
4436,Lady Gowrie Child Centre Inc,TRUE,Current,Australian Skills Quality Authority,National Vocational Education and Training Regulator Act 2011,"43 Dew Street, Thebarton, SA, 5031",South Australia,-34.91845,138.57271,Industry Association,FALSE,FALSE,FALSE,TRUE,FALSE,FALSE,FALSE,FALSE
4518,Nara Training and Assessing Pty Ltd,TRUE,Current,Australian Skills Quality Authority,National Vocational Education and Training Regulator Act 2011,"26 Clifford Street, BUNBURY, WA, 6230",Western Australia,-33.36269,115.67702,Education/training Business Or Centre: Privately Operated Registered Training Organisation,FALSE,TRUE,FALSE,FALSE,TRUE,FALSE,FALSE,FALSE
4520,Skypass Pty Ltd,TRUE,Current,Western Australian Training Accreditation Council (WA TAC),Section 27(1) of the Vocational Education and Training Act WA 1996,"1/32 Halifax Drive, Davenport, WA, 6230",Western Australia,-33.35841,115.66997,Education/training Business Or Centre: Privately Operated Registered Training Organisation,FALSE,FALSE,FALSE,FALSE,TRUE,FALSE,FALSE,FALSE
4525,Combined Skills Training Association Inc,TRUE,Current,Western Australian Training Accreditation Council (WA TAC),Section 27(1) of the Vocational Education and Training Act WA 1996,"3 Focal Way, BAYSWATER, WA, 6053",Western Australia,-31.916779,115.929657,Education/training Business Or Centre: Privately Operated Registered Training Organisation,FALSE,FALSE,FALSE,FALSE,TRUE,FALSE,FALSE,FALSE
4546,INTERNATIONAL COLLEGE OF ADVANCED EDUCATION PTY LTD,TRUE,Current,Australian Skills Quality Authority,National Vocational Education and Training Regulator Act 2011,"17 Chapman Rd, RAPID CREEK, NT, 0810",Northern Territory,-12.38281,130.85522,Education/training Business Or Centre: Privately Operated Registered Training Organisation,TRUE,TRUE,TRUE,TRUE,TRUE,TRUE,TRUE,TRUE
4567,Stanborough Wemyss Contracting Pty Ltd,TRUE,Current,Australian Skills Quality Authority,National Vocational Education and Training Regulator Act 2011,"Level 5, East Tower
608 St Kilda Rd, Melbourne, VIC, 3004",Victoria,-37.85167,144.9807,Education/training Business Or Centre: Privately Operated Registered Training Organisation,TRUE,TRUE,TRUE,TRUE,TRUE,TRUE,TRUE,TRUE
4575,Australian Easy Train Pty Ltd,TRUE,Current,Victorian Registration and Qualifications Authority,"Section 4.3.16	of the Education and Training Reform Act VIC 2006","35 Kimberly Road, DANDENONG SOUTH, VIC, 3175",Victoria,-38.03145,145.20779,Education/training Business Or Centre: Privately Operated Registered Training Organisation,FALSE,TRUE,FALSE,FALSE,FALSE,FALSE,FALSE,FALSE
4577,SCAA Shearer Woolhandler Training Inc,TRUE,Current,Australian Skills Quality Authority,National Vocational Education and Training Regulator Act 2011,"232 Gray Street, Hamilton, VIC, 3300",Victoria,-37.74212,142.02675,Industry Association,TRUE,TRUE,FALSE,TRUE,FALSE,TRUE,FALSE,TRUE
4578,The Victoria Police,TRUE,Current,Victorian Registration and Qualifications Authority,"Section 4.3.16	of the Education and Training Reform Act VIC 2006","1 View Mount Rd, GLEN WAVERLEY, VIC, 3150",Victoria,-37.90001,145.17442,Enterprise - Government,FALSE,TRUE,FALSE,FALSE,FALSE,FALSE,FALSE,FALSE
4580,Kurnai College,TRUE,Current,Victorian Registration and Qualifications Authority,"Section 4.3.16	of the Education and Training Reform Act VIC 2006","Bridle Road, MORWELL, VIC, 3840",Victoria,-38.22684,146.43298,School - Government,FALSE,TRUE,FALSE,FALSE,FALSE,FALSE,FALSE,FALSE
4607,One World for Children Pty Ltd,TRUE,Current,Australian Skills Quality Authority,National Vocational Education and Training Regulator Act 2011,"407-411 Thompson Rd, North Geelong, VIC, 3215",Victoria,-38.0969,144.34587,Education/training Business Or Centre: Privately Operated Registered Training Organisation,TRUE,TRUE,TRUE,TRUE,TRUE,TRUE,TRUE,TRUE
4612,CEPU (Plumbing Division) Education and Training Centre Ltd,TRUE,Current,Australian Skills Quality Authority,National Vocational Education and Training Regulator Act 2011,"Unit 6/306 Albert Street, Brunswick, VIC, 3056",Victoria,-37.76868,144.95898,Education/training Business Or Centre: Privately Operated Registered Training Organisation,TRUE,TRUE,TRUE,TRUE,TRUE,TRUE,TRUE,TRUE
4639,Headmasters Academy Pty Ltd,TRUE,Current,Australian Skills Quality Authority,National Vocational Education and Training Regulator Act 2011,"185 Spring Street, Melbourne, VIC, 3000",Victoria,-37.8103,144.97227,Education/training Business Or Centre: Privately Operated Registered Training Organisation,TRUE,TRUE,TRUE,TRUE,TRUE,TRUE,TRUE,TRUE
4674,South Metropolitan Youth Link Inc,TRUE,Current,Western Australian Training Accreditation Council (WA TAC),Section 27(1) of the Vocational Education and Training Act WA 1996,"Level 1/46 Mews Road, FREMANTLE, WA, 6160",Western Australia,-32.06049,115.7479,Education/training Business Or Centre: Privately Operated Registered Training Organisation,FALSE,FALSE,FALSE,FALSE,TRUE,FALSE,FALSE,FALSE
4687,Box Hill Institute,TRUE,Current,Australian Skills Quality Authority,National Vocational Education and Training Regulator Act 2011,"465 Elgar Road, Box Hill, VIC, 3128",Victoria,-37.814808,145.115454,"Technical And Further Education Institute, Skills Institute Or Polytechnic",TRUE,TRUE,TRUE,TRUE,TRUE,TRUE,TRUE,TRUE
